id,description,price,address,URL,lat,lng,agency,bus_stop_code,dist
187925,"kerrostalo, 47, 5 m2 | 2h + avok + kph + lasitettu p",990.0,"Helsinki, Kalasatama, Parrulaituri 16 C",http://www.vuokraovi.com//vuokra-asunto/helsinki/kalasatama/kerrostalo/kaksio/187925,60.18371500000001,24.9757756,Vuokraturva Oy LKV [A],None,None
187924,"kerrostalo, 43 m2 | 1h + avok + kph + vh + lasitet",938.0,"Espoo, Leppavaara, Leppavaarankatu 12 as 29",http://www.vuokraovi.com//vuokra-asunto/espoo/leppavaara/kerrostalo/yksio/187924,60.2169587,24.8096488,Vuokraturva Oy LKV [A],None,None
187921,"kerrostalo, 86 m2 | 4H+K+S",1265.0,"Helsinki, Vuosaari, Kallvikintie 61",http://www.vuokraovi.com//vuokra-asunto/helsinki/vuosaari/kerrostalo/4h/187921,60.2090745,25.1363283,Lumo / VVO-kotikeskus PKS,None,None
187919,"kerrostalo, 15, 6 m2 | 1h, avokeittio, wc, sh",820.0,"Helsinki, Eerikinkatu 31 B",http://www.vuokraovi.com//vuokra-asunto/helsinki/kerrostalo/yksio/187919,60.1649331,24.9285567,Ylinkerros Oy Haaga,None,None
187917,"kerrostalo, 47, 5 m2 | 2h. k, kph, p",1300.0,"Helsinki, Punavuori, Laivurinkatu 8 C",http://www.vuokraovi.com//vuokra-asunto/helsinki/punavuori/kerrostalo/kaksio/187917,60.1601747,24.9418459,Kiinteistotoimisto Takio LKV [A],None,None
187629,"kerrostalo, 96, 5 m2 | 4h + k + s + ter",1950.0,"Helsinki, Lansi-Pasila, Palkkatilankatu 8 C 27",http://www.vuokraovi.com//vuokra-asunto/helsinki/lansi-pasila/kerrostalo/4h/187629,60.1961874,24.9234841,Aratto Oy,None,None
187910,"kerrostalo, 24, 6 m2 | 1h + avok + kph + wc",710.0,"Helsinki, Laakso, Mannerheimintie 104",http://www.vuokraovi.com//vuokra-asunto/helsinki/laakso/kerrostalo/yksio/187910,60.18965629999999,24.9163293,Vuokraturva Oy LKV [A],None,None
187911,"kerrostalo, 32 m2 | 1h + kk + kph + alkovi + ransk",820.0,"Helsinki, Toolo, Sibeliuksenkatu 4 A",http://www.vuokraovi.com//vuokra-asunto/helsinki/toolo/kerrostalo/yksio/187911,60.1828423,24.9238088,Vuokraturva Oy LKV [A],None,None
187905,"kerrostalo, 33, 5 m2 | 1h + avok + kph + alkovi",620.0,"Espoo, Suvela, Joupinmaenpolku 4 A",http://www.vuokraovi.com//vuokra-asunto/espoo/suvela/kerrostalo/yksio/187905,60.20430029999999,24.6738553,Vuokraturva Oy LKV [A],None,None
187885,"kerrostalo, 64 m2 | 2 h, k, kph",780.0,"Espoo, Kivenlahti, Puosunrinne 4 D",http://www.vuokraovi.com//vuokra-asunto/espoo/kivenlahti/kerrostalo/kaksio/187885,60.1494155,24.6463383,Kiinteistotoimisto Takio LKV [A],None,None
187886,"kerrostalo, 27 m2 | 1h, kk, kph",610.0,"Helsinki, Roihuvuori, Keijukaistenpolku 9 A",http://www.vuokraovi.com//vuokra-asunto/helsinki/roihuvuori/kerrostalo/yksio/187886,60.19720879999999,25.058521,Kiinteistotoimisto Takio LKV [A],None,None
187871,"kerrostalo, 54 m2 | 2h + k + kph + s + vh + lasite",850.0,"Helsinki, Pukinmaki, Myrttitie 3 B",http://www.vuokraovi.com//vuokra-asunto/helsinki/pukinmaki/kerrostalo/kaksio/187871,60.2446193,24.9962637,Vuokraturva Oy LKV [A],None,None
187873,"kerrostalo, 45, 5 m2 | 2h + kk + kph + lasitettu p",745.0,"Helsinki, Myllypuro, Tuulimyllyntie 1 B",http://www.vuokraovi.com//vuokra-asunto/helsinki/myllypuro/kerrostalo/kaksio/187873,60.2272869,25.0672306,Vuokraturva Oy LKV [A],None,None
187875,"kerrostalo, 35 m2 | 2h + k + kph",950.0,"Helsinki, Punavuori, Punavuorenkatu 5 A",http://www.vuokraovi.com//vuokra-asunto/helsinki/punavuori/kerrostalo/kaksio/187875,60.16154119999999,24.9386967,Vuokraturva Oy LKV [A],None,None
187870,"kerrostalo, 44, 5 m2 | 2h + avok + kph",1100.0,"Helsinki, Kaartinkaupunki, Kasarmikatu 38 D",http://www.vuokraovi.com//vuokra-asunto/helsinki/kaartinkaupunki/kerrostalo/kaksio/187870,60.1654516,24.9476448,Vuokraturva Oy LKV [A],None,None
187872,"kerrostalo, 12 m2 | 1h + avok + kph",545.0,"Helsinki, Kallio, Kolmas linja 1 C",http://www.vuokraovi.com//vuokra-asunto/helsinki/kallio/kerrostalo/yksio/187872,60.18116829999999,24.9527167,Vuokraturva Oy LKV [A],None,None
187854,"kerrostalo, 76, 5 m2 | Unfurnished 3r, sauna, balcony",1600.0,"Helsinki, Kruununhaka, Snellmaninkatu 19-21 B",http://www.vuokraovi.com//vuokra-asunto/helsinki/kruununhaka/kerrostalo/kolmio/187854,60.17274010000001,24.9533962,Celine Oy Ab LKV AFM,None,None
187852,"luhtitalo, 15 m2 | 3 hlon soluasunto, mielellaan kaveruksille",371.0,"Helsinki, Mellunmaki, Naulakalliontie 21",http://www.vuokraovi.com//vuokra-asunto/helsinki/mellunmaki/luhtitalo/kolmio/187852,60.2319336,25.1217085,Alkuasunnot Oy,None,None
187834,"kerrostalo, 80, 5 m2 | 3h + k + kph + wc + vh + p",1350.0,"Helsinki, Katajanokka, Matruusinkatu 1 A",http://www.vuokraovi.com//vuokra-asunto/helsinki/katajanokka/kerrostalo/kolmio/187834,60.1667409,24.9756047,Vuokraturva Oy LKV [A],None,None
187836,"kerrostalo, 29 m2 | 1h + avok + kph",720.0,"Helsinki, Alppiharju, Sturenkatu 5b B",http://www.vuokraovi.com//vuokra-asunto/helsinki/alppiharju/kerrostalo/yksio/187836,60.1873064,24.9441575,Vuokraturva Oy LKV [A],None,None
187833,"kerrostalo, 20, 5 m2 | 1h + kk + kph + wc + parvi",637.0,"Helsinki, Fleminginkatu 18 A",http://www.vuokraovi.com//vuokra-asunto/helsinki/kerrostalo/yksio/187833,60.1871748,24.9529816,Vuokraturva Oy LKV [A],None,None
187838,"kerrostalo, 69 m2 | 3h + k + kph + lasitettu p",850.0,"Helsinki, Yliskyla, Yliskylantie 6 D",http://www.vuokraovi.com//vuokra-asunto/helsinki/yliskyla/kerrostalo/kolmio/187838,60.18129369999999,25.0548658,Vuokraturva Oy LKV [A],None,None
187843,"kerrostalo, 44, 5 m2 | 2h + avok + kph + lasitettu p",790.0,"Helsinki, Oulunkyla, Kivalterintie 21 C",http://www.vuokraovi.com//vuokra-asunto/helsinki/oulunkyla/kerrostalo/kaksio/187843,60.2297228,24.9525969,Vuokraturva Oy LKV [A],None,None
187840,"kerrostalo, 39 m2 | 2h + avok + kph + p",790.0,"Helsinki, Herttoniemi, Johan Sederholmin tie 2 E",http://www.vuokraovi.com//vuokra-asunto/helsinki/herttoniemi/kerrostalo/kaksio/187840,60.1922975,25.0447458,Vuokraturva Oy LKV [A],None,None
187835,"kerrostalo, 41 m2 | 2h + avok + kph + p",867.0,"Helsinki, Tilkankatu 16 B",http://www.vuokraovi.com//vuokra-asunto/helsinki/kerrostalo/kaksio/187835,60.1990874,24.8974762,Vuokraturva Oy LKV [A],None,None
187839,"kerrostalo, 25 m2 | 1h + kk + kph",640.0,"Helsinki, Kallio, Harjukatu 4a A",http://www.vuokraovi.com//vuokra-asunto/helsinki/kallio/kerrostalo/yksio/187839,60.1881649,24.9578227,Vuokraturva Oy LKV [A],None,None
187842,"kerrostalo, 37, 5 m2 | 2h + avok + kph",920.0,"Helsinki, Punavuori, Merimiehenkatu 39 A",http://www.vuokraovi.com//vuokra-asunto/helsinki/punavuori/kerrostalo/kaksio/187842,60.15969819999999,24.9355737,Vuokraturva Oy LKV [A],None,None
187793,"kerrostalo, 49 m2 | 2h + kk + kph + wc + vh + p",790.0,"Helsinki, Pohjois-Haaga, Pastori Jussilaisen tie 6 A",http://www.vuokraovi.com//vuokra-asunto/helsinki/pohjois-haaga/kerrostalo/kaksio/187793,60.2266412,24.893678,Vuokraturva Oy LKV [A],None,None
187797,"kerrostalo, 33 m2 | 1h + kk + kph + lasitettu p",690.0,"Helsinki, Kallio, Castreninkatu 9-11 B",http://www.vuokraovi.com//vuokra-asunto/helsinki/kallio/kerrostalo/yksio/187797,60.1850335,24.9469107,Vuokraturva Oy LKV [A],None,None
187791,"kerrostalo, 27 m2 | 1h + kk + kph",670.0,"Helsinki, Pohjois-Haaga, Ida Aalbergin tie 3b B",http://www.vuokraovi.com//vuokra-asunto/helsinki/pohjois-haaga/kerrostalo/yksio/187791,60.23016819999999,24.8995442,Vuokraturva Oy LKV [A],None,None
187799,"rivitalo, 50 m2 | 2h + avok + kph + p + terassi",1090.0,"Helsinki, Kulosaari, Vahaniityntie 12",http://www.vuokraovi.com//vuokra-asunto/helsinki/kulosaari/rivitalo/kaksio/187799,60.1856511,25.01692,Vuokraturva Oy LKV [A],None,None
187789,"kerrostalo, 65, 5 m2 | 3h + k + kph + vh + lasitettu",890.0,"Helsinki, Pihlajamaki, Vuolukiventie 11 J",http://www.vuokraovi.com//vuokra-asunto/helsinki/pihlajamaki/kerrostalo/kolmio/187789,60.2347188,25.0023946,Vuokraturva Oy LKV [A],None,None
187795,"kerrostalo, 29, 2 m2 | 1h + kk + kph + parvi",780.0,"Helsinki, Sornainen, Vaasanpolku 3 A",http://www.vuokraovi.com//vuokra-asunto/helsinki/sornainen/kerrostalo/yksio/187795,60.18815069999999,24.9609557,Vuokraturva Oy LKV [A],None,None
187801,"kerrostalo, 31, 5 m2 | 1h + k + kph + p",660.0,"Espoo, Haukilahti, Salakkatie 8-12 A",http://www.vuokraovi.com//vuokra-asunto/espoo/haukilahti/kerrostalo/yksio/187801,60.16322479999999,24.7812336,Vuokraturva Oy LKV [A],None,None
187800,"kerrostalo, 30, 5 m2 | 1h + kk + kph + terassi",650.0,"Helsinki, Malmi, Tyynelankuja 5 C",http://www.vuokraovi.com//vuokra-asunto/helsinki/malmi/kerrostalo/yksio/187800,60.2525191,24.9949364,Vuokraturva Oy LKV [A],None,None
187785,"kerrostalo, 35, 5 m2 | 1H+K",912.0,"Helsinki, Toolo, Mechelininkatu 6",http://www.vuokraovi.com//vuokra-asunto/helsinki/toolo/kerrostalo/yksio/187785,60.1710132,24.9201004,Lumo / VVO-kotikeskus PKS,None,None
187784,"kerrostalo, 50, 5 m2 | 2H+KK+S",983.0,"Helsinki, Sornainen, Hameentie 17 B",http://www.vuokraovi.com//vuokra-asunto/helsinki/sornainen/kerrostalo/kaksio/187784,60.1852414,24.9611632,Lumo / VVO-kotikeskus PKS,None,None
187783,"kerrostalo, 41, 5 m2 | 1H+KK",896.0,"Helsinki, Sornainen, Hameentie 48",http://www.vuokraovi.com//vuokra-asunto/helsinki/sornainen/kerrostalo/yksio/187783,60.18669320000001,24.9610531,Lumo / VVO-kotikeskus PKS,None,None
187779,"kerrostalo, 35 m2 | 1h, kk, kh, alkovi",820.0,"Helsinki, Hakaniemi, Hakaniemenranta 26",http://www.vuokraovi.com//vuokra-asunto/helsinki/hakaniemi/kerrostalo/yksio/187779,60.17332440000001,24.9410248,Paakaupunkiseutu Yksityisomistajien vuokra-asunnot,None,None
187778,"kerrostalo, 15 m2 | 1h + kk + kph + alkovi",625.0,"Helsinki, Kamppi, Eerikinkatu 23 C",http://www.vuokraovi.com//vuokra-asunto/helsinki/kamppi/kerrostalo/yksio/187778,60.16560459999999,24.9304098,Vuokraturva Oy LKV [A],None,None
187752,"kerrostalo, 40, 5 m2 | 2h + avok + kph + s + lasitett",995.0,"Helsinki, Sornainen, Lintulahdenaukio 10 A",http://www.vuokraovi.com//vuokra-asunto/helsinki/sornainen/kerrostalo/kaksio/187752,60.18483969999999,24.9630025,Vuokraturva Oy LKV [A],None,None
187747,"kerrostalo, 53 m2 | 2h + avok + kph + s + lasitett",900.0,"Helsinki, Pukinmaki, Johan Bockin kuja 10 E",http://www.vuokraovi.com//vuokra-asunto/helsinki/pukinmaki/kerrostalo/kaksio/187747,60.23985140000001,24.9828698,Vuokraturva Oy LKV [A],None,None
187742,"kerrostalo, 44, 5 m2 | 2h + avok + kph + lasitettu p",895.0,"Helsinki, Herttoniemenranta, Niittaajankatu 4 C",http://www.vuokraovi.com//vuokra-asunto/helsinki/herttoniemenranta/kerrostalo/kaksio/187742,60.1913827,25.0277084,Vuokraturva Oy LKV [A],None,None
187741,"kerrostalo, 48 m2 | 2h + avok + kph + s + lasitett",850.0,"Espoo, Leppavaara, Leppavaarankatu 7 A",http://www.vuokraovi.com//vuokra-asunto/espoo/leppavaara/kerrostalo/kaksio/187741,60.2171101,24.8102652,Vuokraturva Oy LKV [A],None,None
187740,"kerrostalo, 39, 5 m2 | 2h + kk + kph + vh",870.0,"Helsinki, Munkkivuori, Porintie 2 H",http://www.vuokraovi.com//vuokra-asunto/helsinki/munkkivuori/kerrostalo/kaksio/187740,60.20447389999999,24.8704759,Vuokraturva Oy LKV [A],None,None
187737,"kerrostalo, 30 m2 | 1h + kk + kph",655.0,"Helsinki, Mellunmaki, Saanatunturintie 3 G",http://www.vuokraovi.com//vuokra-asunto/helsinki/mellunmaki/kerrostalo/yksio/187737,60.23497289999999,25.1256588,Vuokraturva Oy LKV [A],None,None
187738,"kerrostalo, 52, 5 m2 | 2h + kk + kph + vh + lasitettu",820.0,"Helsinki, Munkkivuori, Ulvilantie 7 B",http://www.vuokraovi.com//vuokra-asunto/helsinki/munkkivuori/kerrostalo/kaksio/187738,60.20422619999999,24.8770568,Vuokraturva Oy LKV [A],None,None
187736,"kerrostalo, 30, 9 m2 | 1h + kk",720.0,"Helsinki, Kallio, Hameentie 28",http://www.vuokraovi.com//vuokra-asunto/helsinki/kallio/kerrostalo/yksio/187736,60.18314059999999,24.9579728,Agency info missing,None,None
187704,"kerrostalo, 95 m2 | 4H+K+S",1586.0,"Helsinki, Kannelmaki, Pasuunatie 2b",http://www.vuokraovi.com//vuokra-asunto/helsinki/kannelmaki/kerrostalo/4h/187704,60.2408732,24.8720145,Lumo / VVO-kotikeskus PKS,None,None
187705,"kerrostalo, 66, 5 m2 | 2H+TPK+S",1231.0,"Helsinki, Kannelmaki, Pasuunatie 2b",http://www.vuokraovi.com//vuokra-asunto/helsinki/kannelmaki/kerrostalo/kaksio/187705,60.2408732,24.8720145,Lumo / VVO-kotikeskus PKS,None,None
187704,"kerrostalo, 95 m2 | 4H+K+S",1586.0,"Helsinki, Kannelmaki, Pasuunatie 2b",http://www.vuokraovi.com//vuokra-asunto/helsinki/kannelmaki/kerrostalo/4h/187704,60.2408732,24.8720145,Lumo / VVO-kotikeskus PKS,None,None
187705,"kerrostalo, 66, 5 m2 | 2H+TPK+S",1231.0,"Helsinki, Kannelmaki, Pasuunatie 2b",http://www.vuokraovi.com//vuokra-asunto/helsinki/kannelmaki/kerrostalo/kaksio/187705,60.2408732,24.8720145,Lumo / VVO-kotikeskus PKS,None,None
187691,"kerrostalo, 55 m2 | 2h+k",965.0,"Helsinki, Mellunmaki, Korvatunturinpolku 5",http://www.vuokraovi.com//vuokra-asunto/helsinki/mellunmaki/kerrostalo/kaksio/187691,60.2384412,25.1170489,Agency info missing,None,None
187694,"kerrostalo, 55, 5 m2 | 2h+k",950.0,"Helsinki, Kannelmaki, Kaustisenpolku 1",http://www.vuokraovi.com//vuokra-asunto/helsinki/kannelmaki/kerrostalo/kaksio/187694,60.23865609999999,24.881704,SATO Vuokraus ja myynti / Helsinki,None,None
187695,"kerrostalo, 44, 5 m2 | 2h+kk+s",795.0,"Espoo, Kilo, Kilonkallionkuja 5",http://www.vuokraovi.com//vuokra-asunto/espoo/kilo/kerrostalo/kaksio/187695,60.22121179999999,24.7811638,Agency info missing,None,None
187692,"kerrostalo, 74 m2 | 3h+k",1300.0,"Helsinki, Lansi-Pasila, Maistraatinkatu 7",http://www.vuokraovi.com//vuokra-asunto/helsinki/lansi-pasila/kerrostalo/kolmio/187692,60.2000247,24.9218341,SATO Vuokraus ja myynti / Helsinki,None,None
187651,"kerrostalo, 52 m2 | 2h+k+s",960.0,"Espoo, Ymmersta, Ullantorppa 10 B",http://www.vuokraovi.com//vuokra-asunto/espoo/ymmersta/kerrostalo/kaksio/187651,60.20410459999999,24.705429,Lansivalitys Oy LKV,None,None
187642,"kerrostalo, 69 m2 | 2h, halli, keittio, kph, erill",1150.0,"Helsinki, Taka-Toolo, Mannerheimintie 64 A",http://www.vuokraovi.com//vuokra-asunto/helsinki/taka-toolo/kerrostalo/kaksio/187642,60.1826833,24.9257544,Habita Toolo / Etela-Helsingin Habita Oy,None,None
187641,"kerrostalo, 52 m2 | 2 h, kk, s, parveke",836.0,"Espoo, Eestinlaakso, Eestintaival 3 D",http://www.vuokraovi.com//vuokra-asunto/espoo/eestinlaakso/kerrostalo/kaksio/187641,60.16971539999999,24.6751341,Suomen Laatuasunnot Oy,None,None
187626,"kerrostalo, 75, 5 m2 | FURNISHED 3r, kitchen, 2 glassed-in balconies",1600.0,"Helsinki, Ullanlinna, Tehtaankatu 10 B",http://www.vuokraovi.com//vuokra-asunto/helsinki/ullanlinna/kerrostalo/kolmio/187626,60.1585867,24.9506413,Celine Oy Ab LKV AFM,None,None
187603,"kerrostalo, 75, 5 m2 | 3h+k+las.parveke",1318.25,"Helsinki, Pikku Huopalahti, Tilkankuja 6 B 12",http://www.vuokraovi.com//vuokra-asunto/helsinki/pikku+huopalahti/kerrostalo/kolmio/187603,60.197781,24.8962786,Keva,None,None
187597,"kerrostalo, 32 m2 | Unfurnished/ FURNISHED 1 room, kitchen",950.0,"Helsinki, Kaartinkaupunki, Kasarmikatu 28 C",http://www.vuokraovi.com//vuokra-asunto/helsinki/kaartinkaupunki/kerrostalo/yksio/187597,60.16403649999999,24.9477951,Celine Oy Ab LKV AFM,None,None
187595,"kerrostalo, 57 m2 | 2h, k, kph, p",835.0,"Helsinki, Roihuvuori, Keijukaistenpolku 5 C",http://www.vuokraovi.com//vuokra-asunto/helsinki/roihuvuori/kerrostalo/kaksio/187595,60.1962076,25.0596712,Habita Itakeskus / Helsingin Habita Oy,None,None
187579,"kerrostalo, 70 m2 | 3h + avok + kph + lasitettu p",1590.0,"Helsinki, Ullanlinna, Kapteeninkatu 7 A",http://www.vuokraovi.com//vuokra-asunto/helsinki/ullanlinna/kerrostalo/kolmio/187579,60.1572743,24.945507,Vuokraturva Oy LKV [A],None,None
187578,"kerrostalo, 38 m2 | 2h + kk + kph + p",780.0,"Helsinki, Lauttasaari, Lauttasaarentie 5 B",http://www.vuokraovi.com//vuokra-asunto/helsinki/lauttasaari/kerrostalo/kaksio/187578,60.1612182,24.8900857,Vuokraturva Oy LKV [A],None,None
187554,"kerrostalo, 36 m2 | 1h + kk + kph",745.0,"Espoo, Leppavaara, Harakantie 20 B",http://www.vuokraovi.com//vuokra-asunto/espoo/leppavaara/kerrostalo/yksio/187554,60.2211762,24.8148,Vuokraturva Oy LKV [A],None,None
187553,"kerrostalo, 24, 5 m2 | 1h + kk + wc",690.0,"Helsinki, Kallio, Pengerkatu 13a A",http://www.vuokraovi.com//vuokra-asunto/helsinki/kallio/kerrostalo/yksio/187553,60.18449769999999,24.9582154,Vuokraturva Oy LKV [A],None,None
187555,"kerrostalo, 29 m2 | 1h + avok + kph + p",750.0,"Helsinki, Munkkiniemi, Huopalahdentie 7 A",http://www.vuokraovi.com//vuokra-asunto/helsinki/munkkiniemi/kerrostalo/yksio/187555,60.1985462,24.8844154,Vuokraturva Oy LKV [A],None,None
187552,"paritalo, 133 m2 | 5h + avok + kph + 2 erillista",1795.0,"Espoo, Mankkaa, Porttiniityntie 9 C",http://www.vuokraovi.com//vuokra-asunto/espoo/mankkaa/paritalo/5h+/187552,60.1976041,24.7683036,Vuokraturva Oy LKV [A],None,None
187536,"omakotitalo, 110 m2 | 4h + avok + kph + 2 erillista",1590.0,"Espoo, Makkyla, Vahtirinne 9 B",http://www.vuokraovi.com//vuokra-asunto/espoo/makkyla/omakotitalo/4h/187536,60.22214649999999,24.8411573,Vuokraturva Oy LKV [A],None,None
187532,"kerrostalo, 66 m2 | 2h + k + kph",1300.0,"Helsinki, Toolo, Savilankatu 2 D",http://www.vuokraovi.com//vuokra-asunto/helsinki/toolo/kerrostalo/kaksio/187532,60.1872692,24.9208296,Vuokraturva Oy LKV [A],None,None
187535,"kerrostalo, 45 m2 | 2h + k + kph + p",830.0,"Espoo, Tapiola, Nallenpolku 2 C",http://www.vuokraovi.com//vuokra-asunto/espoo/tapiola/kerrostalo/kaksio/187535,60.1783331,24.819567,Vuokraturva Oy LKV [A],None,None
187533,"kerrostalo, 27 m2 | 1h + kk + kph",625.0,"Espoo, Lahderanta, Lahderanta 20 D",http://www.vuokraovi.com//vuokra-asunto/espoo/lahderanta/kerrostalo/yksio/187533,60.2429424,24.7412056,Vuokraturva Oy LKV [A],None,None
187534,"kerrostalo, 49 m2 | 2h + k + kph + vh + ranskalain",890.0,"Helsinki, Munkkivuori, Ulvilantie 19 a B",http://www.vuokraovi.com//vuokra-asunto/helsinki/munkkivuori/kerrostalo/kaksio/187534,60.208015,24.864353,Vuokraturva Oy LKV [A],None,None
187504,"kerrostalo, 56 m2 | 2h, kk, s, terassi",992.0,"Espoo, Suurpelto, Piilipuuntie 21",http://www.vuokraovi.com//vuokra-asunto/espoo/suurpelto/kerrostalo/kaksio/187504,60.1882945,24.7389331,Paakaupunkiseutu Suuromistajien vuokra-asunnot,None,None
187527,"kerrostalo, 66 m2 | 3h, kk, s, lasitettu parveke",1079.0,"Espoo, Suurpelto, Piilipuuntie 21",http://www.vuokraovi.com//vuokra-asunto/espoo/suurpelto/kerrostalo/kolmio/187527,60.1882945,24.7389331,Paakaupunkiseutu Suuromistajien vuokra-asunnot,None,None
187513,"kerrostalo, 100, 5 m2 | 4h, k, s, lasitettu parveke",1490.0,"Espoo, Suurpelto, Piilipuuntie 21",http://www.vuokraovi.com//vuokra-asunto/espoo/suurpelto/kerrostalo/4h/187513,60.1882945,24.7389331,Paakaupunkiseutu Suuromistajien vuokra-asunnot,None,None
187516,"kerrostalo, 68 m2 | 3h, kk, vh, s, lasitettu parveke",1130.0,"Espoo, Suurpelto, Piilipuuntie 21",http://www.vuokraovi.com//vuokra-asunto/espoo/suurpelto/kerrostalo/kolmio/187516,60.1882945,24.7389331,Paakaupunkiseutu Suuromistajien vuokra-asunnot,None,None
187523,"kerrostalo, 55, 5 m2 | 2h, kk, s, lasitettu parveke",992.0,"Espoo, Suurpelto, Piilipuuntie 21",http://www.vuokraovi.com//vuokra-asunto/espoo/suurpelto/kerrostalo/kaksio/187523,60.1882945,24.7389331,Paakaupunkiseutu Suuromistajien vuokra-asunnot,None,None
187518,"kerrostalo, 48, 5 m2 | 2h, kk, s, lasitettu parveke",865.0,"Espoo, Suurpelto, Piilipuuntie 21",http://www.vuokraovi.com//vuokra-asunto/espoo/suurpelto/kerrostalo/kaksio/187518,60.1882945,24.7389331,Paakaupunkiseutu Suuromistajien vuokra-asunnot,None,None
187518,"kerrostalo, 48, 5 m2 | 2h, kk, s, lasitettu parveke",865.0,"Espoo, Suurpelto, Piilipuuntie 21",http://www.vuokraovi.com//vuokra-asunto/espoo/suurpelto/kerrostalo/kaksio/187518,60.1882945,24.7389331,Paakaupunkiseutu Suuromistajien vuokra-asunnot,None,None
187496,"kerrostalo, 53 m2 | 2h + avok + kph + s",1240.0,"Helsinki, Ullanlinna, Jaakarinkatu 4 A",http://www.vuokraovi.com//vuokra-asunto/helsinki/ullanlinna/kerrostalo/kaksio/187496,60.1600771,24.9452642,Vuokraturva Oy LKV [A],None,None
187492,"kerrostalo, 47, 5 m2 | 2 h + kt + s + parveke",950.0,"Espoo, Matinkyla, Matinniitynkuja 3 A",http://www.vuokraovi.com//vuokra-asunto/espoo/matinkyla/kerrostalo/kaksio/187492,60.1598838,24.7443331,Agency info missing,None,None
187488,"kerrostalo, 25 m2 | 1 h+kk+kh",750.0,"Helsinki, Punavuori, Kankurinkatu 7",http://www.vuokraovi.com//vuokra-asunto/helsinki/punavuori/kerrostalo/yksio/187488,60.1596518,24.9367977,Paakaupunkiseutu Yksityisomistajien vuokra-asunnot,None,None
187486,"kerrostalo, 55 m2 | 2h, k, kph, lasitettu parveke",790.0,"Helsinki, Mellunmaki, Uotinmaentie 9 E",http://www.vuokraovi.com//vuokra-asunto/helsinki/mellunmaki/kerrostalo/kaksio/187486,60.2364639,25.1154772,Habita Itakeskus / Helsingin Habita Oy,None,None
187487,"kerrostalo, 57, 5 m2 | 2h, k",1350.0,"Helsinki, Ullanlinna, Korkeavuorenkatu 3 A 11",http://www.vuokraovi.com//vuokra-asunto/helsinki/ullanlinna/kerrostalo/kaksio/187487,60.1600067,24.9467645,Habita Etela-Helsinki / Etela-Helsingin Habita Oy,None,None
187479,"kerrostalo, 41, 5 m2 | 2h + kk + kph",1300.0,"Helsinki, Ullanlinna, Kasarmikatu 4 C",http://www.vuokraovi.com//vuokra-asunto/helsinki/ullanlinna/kerrostalo/kaksio/187479,60.1601233,24.9482894,Vuokraturva Oy LKV [A],None,None
187481,"kerrostalo, 50 m2 | 2h + k + kph + lasitettu p",830.0,"Espoo, Niittykumpu, Niittykatu 3 D",http://www.vuokraovi.com//vuokra-asunto/espoo/niittykumpu/kerrostalo/kaksio/187481,60.1689623,24.7607611,Vuokraturva Oy LKV [A],None,None
187478,"kerrostalo, 32 m2 | 1h + avok + kph",950.0,"Helsinki, Toolo, Paivarinnankatu 5b A",http://www.vuokraovi.com//vuokra-asunto/helsinki/toolo/kerrostalo/yksio/187478,60.1884505,24.9158352,Vuokraturva Oy LKV [A],None,None
187480,"kerrostalo, 40 m2 | 2h + avok + kph",890.0,"Helsinki, Lauttasaari, Katajaharjuntie 6 C",http://www.vuokraovi.com//vuokra-asunto/helsinki/lauttasaari/kerrostalo/kaksio/187480,60.16464089999999,24.8583758,Vuokraturva Oy LKV [A],None,None
187460,"kerrostalo, 57 m2 | 2h+kt+s",992.0,"Espoo, Espoonlahti, Ulappakatu 1 F",http://www.vuokraovi.com//vuokra-asunto/espoo/espoonlahti/kerrostalo/kaksio/187460,60.1508655,24.6550839,Newsec Asset Management  Oy,None,None
187458,"rivitalo, 118 m2 | 3-4H, K, S",1800.0,"Helsinki, Tammisalo, Mantypaadentie 17 B",http://www.vuokraovi.com//vuokra-asunto/helsinki/tammisalo/rivitalo/kolmio/187458,60.194298,25.0690241,"Helsingin OPKK, Ullanlinna",None,None
187437,"kerrostalo, 75 m2 | 3H+K+S",1273.0,"Helsinki, Jatkasaari, Suezinkatu 3",http://www.vuokraovi.com//vuokra-asunto/helsinki/jatkasaari/kerrostalo/kolmio/187437,60.1584061,24.9215332,"Ovenia Isannointi Oy, Helsinki ( Avara)",None,None
187444,"kerrostalo, 43 m2 | 1H+KT",994.98,"Espoo, Leppavaara, Linnatullinkatu 1",http://www.vuokraovi.com//vuokra-asunto/espoo/leppavaara/kerrostalo/yksio/187444,60.2189922,24.8083298,Ovenia Isannointi Oy,None,None
187424,"kerrostalo, 27 m2 | 1h + avok + alkovi",790.0,"Helsinki, Sornainen, Paaskylanrinne 6 B",http://www.vuokraovi.com//vuokra-asunto/helsinki/sornainen/kerrostalo/yksio/187424,60.1878811,24.9662983,Vuokraturva Oy LKV [A],None,None
187415,"kerrostalo, 50 m2 | 1h, k, kph, erill.wc",895.0,"Helsinki, Kallio, Kaarlenkatu 15 C",http://www.vuokraovi.com//vuokra-asunto/helsinki/kallio/kerrostalo/yksio/187415,60.1865975,24.9514504,"Helsingin OPKK, Ullanlinna",None,None
187409,"kerrostalo, 53, 5 m2 | 2h + k + kph",1190.0,"Helsinki, Kruununhaka, Mariankatu 19 A",http://www.vuokraovi.com//vuokra-asunto/helsinki/kruununhaka/kerrostalo/kaksio/187409,60.1728569,24.9565773,Vuokraturva Oy LKV [A],None,None
187207,"kerrostalo, 43 m2 | 2h, avok, kph",1150.0,"Helsinki, Kamppi, Etelainen Rautatiekatu 16 a",http://www.vuokraovi.com//vuokra-asunto/helsinki/kamppi/kerrostalo/kaksio/187207,60.1683718,24.924984,Agency info missing,None,None
187395,"kerrostalo, 45, 7 m2 | 1h + avok + kph + wc + alkovi",1098.0,"Helsinki, Kruununhaka, Meritullinkatu 13 A",http://www.vuokraovi.com//vuokra-asunto/helsinki/kruununhaka/kerrostalo/yksio/187395,60.1725615,24.9585419,Vuokraturva Oy LKV [A],None,None
187394,"paritalo, 107 m2 | 5h+k+s",1590.0,"Espoo, Olari, Aamutie 2",http://www.vuokraovi.com//vuokra-asunto/espoo/olari/paritalo/5h+/187394,60.1694338,24.7436677,"TA-Yhtyma Oy, Espoo",None,None
187388,"kerrostalo, 32 m2 | 1h+kk",674.0,"Espoo, Soukka, Soukankaari 13",http://www.vuokraovi.com//vuokra-asunto/espoo/soukka/kerrostalo/yksio/187388,60.1408016,24.6673884,Agency info missing,None,None
187389,"kerrostalo, 31, 5 m2 | 1h+kk",778.0,"Helsinki, Ita-Pasila, Jarrumiehenkatu 2",http://www.vuokraovi.com//vuokra-asunto/helsinki/ita-pasila/kerrostalo/yksio/187389,60.2011878,24.9405208,SATO Vuokraus ja myynti / Helsinki,None,None
187321,"kerrostalo, 50 m2 | FURNISHED 2 r, kitchen",900.0,"Helsinki, Ullanlinna, Pietarinkatu 1 E",http://www.vuokraovi.com//vuokra-asunto/helsinki/ullanlinna/kerrostalo/kaksio/187321,60.15813430000001,24.9520139,Celine Oy Ab LKV AFM,None,None
187328,"kerrostalo, 47, 5 m2 | 2H+KT",888.0,"Espoo, Espoonlahti, Ulappakatu 1 G",http://www.vuokraovi.com//vuokra-asunto/espoo/espoonlahti/kerrostalo/kaksio/187328,60.1508655,24.6550839,Newsec Asset Management  Oy,None,None
187324,"kerrostalo, 63, 5 m2 | 3h+kt+s",1080.0,"Espoo, Espoonlahti, Ulappakatu 1 F",http://www.vuokraovi.com//vuokra-asunto/espoo/espoonlahti/kerrostalo/kolmio/187324,60.1508655,24.6550839,Newsec Asset Management  Oy,None,None
187325,"kerrostalo, 82, 5 m2 | 3h+k+s",1304.0,"Espoo, Espoonlahti, Ulappakatu 1 F",http://www.vuokraovi.com//vuokra-asunto/espoo/espoonlahti/kerrostalo/kolmio/187325,60.1508655,24.6550839,Newsec Asset Management  Oy,None,None
187326,"kerrostalo, 63, 5 m2 | 3h+kt+s",1092.0,"Espoo, Espoonlahti, Ulappakatu 1 F",http://www.vuokraovi.com//vuokra-asunto/espoo/espoonlahti/kerrostalo/kolmio/187326,60.1508655,24.6550839,Newsec Asset Management  Oy,None,None
187324,"kerrostalo, 63, 5 m2 | 3h+kt+s",1080.0,"Espoo, Espoonlahti, Ulappakatu 1 F",http://www.vuokraovi.com//vuokra-asunto/espoo/espoonlahti/kerrostalo/kolmio/187324,60.1508655,24.6550839,Newsec Asset Management  Oy,None,None
187326,"kerrostalo, 63, 5 m2 | 3h+kt+s",1092.0,"Espoo, Espoonlahti, Ulappakatu 1 F",http://www.vuokraovi.com//vuokra-asunto/espoo/espoonlahti/kerrostalo/kolmio/187326,60.1508655,24.6550839,Newsec Asset Management  Oy,None,None
187309,"kerrostalo, 77 m2 | 3h, avok., sauna, vh, lasitettu p",1253.0,"Espoo, Matinkyla, Maailman-Matti 2",http://www.vuokraovi.com//vuokra-asunto/espoo/matinkyla/kerrostalo/kolmio/187309,60.16242499999999,24.7399043,Paakaupunkiseutu Suuromistajien vuokra-asunnot,None,None
187308,"kerrostalo, 81 m2 | 3-4h, k, wc, sauna, parveke",1140.0,"Helsinki, Puistola, Tapulikaupungintie 13",http://www.vuokraovi.com//vuokra-asunto/helsinki/puistola/kerrostalo/4h/187308,60.2767296,25.0345024,Paakaupunkiseutu Suuromistajien vuokra-asunnot,None,None
187300,"omakotitalo, 176 m2 | 4h+rt+takkah+2vh+kph+wc+saunao",3400.0,"Espoo, Ruukinrannantie 14 D",http://www.vuokraovi.com//vuokra-asunto/espoo/omakotitalo/5h+/187300,60.20607219999999,24.8221744,ForenomDirect,None,None
187270,"kerrostalo, 64 m2 | 3h + avok + kph + s + lasitett",1240.0,"Helsinki, Vanhankaupunginlahti, Jokisuunpolku 2 A",http://www.vuokraovi.com//vuokra-asunto/helsinki/vanhankaupunginlahti/kerrostalo/kolmio/187270,60.17332440000001,24.9410248,Vuokraturva Oy LKV [A],None,None
187254,"kerrostalo, 54 m2 | 3h, avokk, kh, sauna, parveke",1161.0,"Espoo, Matinkyla, Matinniitynkuja 1",http://www.vuokraovi.com//vuokra-asunto/espoo/matinkyla/kerrostalo/kolmio/187254,60.160032,24.7451076,Paakaupunkiseutu Suuromistajien vuokra-asunnot,None,None
187230,"kerrostalo, 51 m2 | 2H+K",1118.0,"Espoo, Leppavaara, Linnatullinkatu 1",http://www.vuokraovi.com//vuokra-asunto/espoo/leppavaara/kerrostalo/kaksio/187230,60.2189922,24.8083298,Ovenia Isannointi Oy,None,None
187212,"kerrostalo, 61, 5 m2 | 3H+K",1015.0,"Espoo, Leppavaara, Leirikaari 24",http://www.vuokraovi.com//vuokra-asunto/espoo/leppavaara/kerrostalo/kolmio/187212,60.2104578,24.8076937,Lumo / VVO-kotikeskus PKS,None,None
187208,"kerrostalo, 53, 5 m2 | 2H+KK+S",1027.0,"Espoo, Matinkyla, Markkinakatu 4 A",http://www.vuokraovi.com//vuokra-asunto/espoo/matinkyla/kerrostalo/kaksio/187208,60.16070869999999,24.7369593,Ovenia (co. Keskinainen Elakevakuutusyhtio Ilmarinen),None,None
187200,"kerrostalo, 99, 5 m2 | 4h, k, lasitettu parveke",1250.0,"Espoo, Soukka, Alakartanontie 6 B",http://www.vuokraovi.com//vuokra-asunto/espoo/soukka/kerrostalo/4h/187200,60.1365026,24.6738126,Ylinkerros Oy Haaga,None,None
187197,"kerrostalo, 27 m2 | 1 h, kk",710.0,"Helsinki, Lassila, Kaupintie 18 A",http://www.vuokraovi.com//vuokra-asunto/helsinki/lassila/kerrostalo/yksio/187197,60.229142,24.8807684,Kiinteistotoimisto Takio LKV [A],None,None
187186,"kerrostalo, 45 m2 | 1h + avok + kph + vh + alkovi",890.0,"Helsinki, Alppiharju, Aleksis Kiven katu 52-54 C",http://www.vuokraovi.com//vuokra-asunto/helsinki/alppiharju/kerrostalo/yksio/187186,60.19200290000001,24.9456096,Vuokraturva Oy LKV [A],None,None
187187,"kerrostalo, 29 m2 | 1h + kk + kph + vh + ranskalai",750.0,"Helsinki, Sornainen, Kulmavuorenkatu 4 B",http://www.vuokraovi.com//vuokra-asunto/helsinki/sornainen/kerrostalo/yksio/187187,60.1883351,24.9648311,Vuokraturva Oy LKV [A],None,None
187179,"kerrostalo, 57, 5 m2 | 2H+K",844.0,"Espoo, Kivenlahti, Kivenlahdenkatu 6",http://www.vuokraovi.com//vuokra-asunto/espoo/kivenlahti/kerrostalo/kaksio/187179,60.1544184,24.631855,Lumo / VVO-kotikeskus PKS,None,None
187150,"rivitalo, 98, 5 m2 | 4H+K+S",1360.0,"Espoo, Tuomarila, Ratalaaksonkuja 5 C 11",http://www.vuokraovi.com//vuokra-asunto/espoo/tuomarila/rivitalo/4h/187150,60.2053665,24.6762937,Asokodit,None,None
187163,"kerrostalo, 77 m2 | 3h+k",1090.0,"Helsinki, Etela-Haaga, Laajasuontie 32 B 10",http://www.vuokraovi.com//vuokra-asunto/helsinki/etela-haaga/kerrostalo/kolmio/187163,60.21959169999999,24.8959357,Helsingin kaupunki / Kiinteistovirasto / Asunto-osasto,None,None
187138,"kerrostalo, 52, 5 m2 | 2h + k + p",880.0,"Helsinki, Puotila, Klaavuntie 4",http://www.vuokraovi.com//vuokra-asunto/helsinki/puotila/kerrostalo/kaksio/187138,60.20937319999999,25.0986044,Agency info missing,None,None
187140,"kerrostalo, 86 m2 | 4h+k+s+2parveketta",2055.3,"Helsinki, Jatkasaari, Saukonpaadenranta 4",http://www.vuokraovi.com//vuokra-asunto/helsinki/jatkasaari/kerrostalo/4h/187140,60.1598466,24.9095515,Suomen Vuokrakodit Oy,None,None
187137,"kerrostalo, 55, 5 m2 | 2h+k+s+parveke",1290.3,"Helsinki, Jatkasaari, Saukonpaadenranta 4",http://www.vuokraovi.com//vuokra-asunto/helsinki/jatkasaari/kerrostalo/kaksio/187137,60.1598466,24.9095515,Suomen Vuokrakodit Oy,None,None
187134,"kerrostalo, 42 m2 | 2h+kk",784.42,"Espoo, Tuomarila, Kulovalkeantie 22",http://www.vuokraovi.com//vuokra-asunto/espoo/tuomarila/kerrostalo/kaksio/187134,60.20750049999999,24.6846329,Suomen Vuokrakodit Oy,None,None
187131,"kerrostalo, 41 m2 | 2h+kk+terassi",728.7,"Espoo, Tuomarila, Kulovalkeantie 22",http://www.vuokraovi.com//vuokra-asunto/espoo/tuomarila/kerrostalo/kaksio/187131,60.20750049999999,24.6846329,Suomen Vuokrakodit Oy,None,None
187129,"kerrostalo, 68 m2 | 3h+kt+s+parveke",1014.29,"Espoo, Tuomarila, Kulovalkeankuja 2",http://www.vuokraovi.com//vuokra-asunto/espoo/tuomarila/kerrostalo/kolmio/187129,60.2078836,24.6846481,Suomen Vuokrakodit Oy,None,None
187127,"kerrostalo, 75 m2 | 3h+k+s+parveke",1216.86,"Helsinki, Konala, Ajomiehentie 8",http://www.vuokraovi.com//vuokra-asunto/helsinki/konala/kerrostalo/kolmio/187127,60.2386403,24.8502881,Suomen Vuokrakodit Oy,None,None
187121,"kerrostalo, 68, 5 m2 | 3h+kt+s+parveke",1031.39,"Espoo, Tuomarila, Kulovalkeantie 22",http://www.vuokraovi.com//vuokra-asunto/espoo/tuomarila/kerrostalo/kolmio/187121,60.20750049999999,24.6846329,Suomen Vuokrakodit Oy,None,None
187119,"kerrostalo, 71, 5 m2 | 3h+kk+s+parveke",1698.0,"Helsinki, Jatkasaari, Saukonpaadenranta",http://www.vuokraovi.com//vuokra-asunto/helsinki/jatkasaari/kerrostalo/kolmio/187119,60.1593104,24.9079325,Suomen Vuokrakodit Oy,None,None
187117,"kerrostalo, 52, 5 m2 | 2h+k+s+parveke",1310.7,"Helsinki, Jatkasaari, Saukonpaadenranta 4",http://www.vuokraovi.com//vuokra-asunto/helsinki/jatkasaari/kerrostalo/kaksio/187117,60.1598466,24.9095515,Suomen Vuokrakodit Oy,None,None
187115,"kerrostalo, 50, 5 m2 | 2h+k+parveke",1204.0,"Helsinki, Jatkasaari, Saukonpaadenranta 4",http://www.vuokraovi.com//vuokra-asunto/helsinki/jatkasaari/kerrostalo/kaksio/187115,60.1598466,24.9095515,Suomen Vuokrakodit Oy,None,None
187113,"kerrostalo, 83 m2 | 4h+kt+s+parveke",1358.0,"Helsinki, Konala, Ajomiehentie 8",http://www.vuokraovi.com//vuokra-asunto/helsinki/konala/kerrostalo/4h/187113,60.2386403,24.8502881,Suomen Vuokrakodit Oy,None,None
187109,"kerrostalo, 58 m2 | 2h+k+s+parveke",1449.42,"Helsinki, Jatkasaari, Saukonpaadenranta 4",http://www.vuokraovi.com//vuokra-asunto/helsinki/jatkasaari/kerrostalo/kaksio/187109,60.1598466,24.9095515,Suomen Vuokrakodit Oy,None,None
187122,"kerrostalo, 49, 5 m2 | 2H+K",771.0,"Espoo, Tuomarila, Lyhtykuja 4",http://www.vuokraovi.com//vuokra-asunto/espoo/tuomarila/kerrostalo/kaksio/187122,60.2061106,24.6744993,VVO-kotikeskus PKS,None,None
187079,"kerrostalo, 72, 5 m2 | 3h, k, s, lasitettu parveke",1073.0,"Helsinki, Puistola, Tapulikaupungintie 13",http://www.vuokraovi.com//vuokra-asunto/helsinki/puistola/kerrostalo/kolmio/187079,60.2767296,25.0345024,Paakaupunkiseutu Suuromistajien vuokra-asunnot,None,None
187049,"kerrostalo, 23 m2 | 1h + avok + kph + ranskalainen",657.0,"Helsinki, Hermanni, Helminkatu 6 A",http://www.vuokraovi.com//vuokra-asunto/helsinki/hermanni/kerrostalo/yksio/187049,60.19794349999999,24.9635459,Vuokraturva Oy LKV [A],None,None
187042,"kerrostalo, 22 m2 | KALUSTETTU 1H+AVOK+KPH",780.0,"Helsinki, Kamppi, Eerikinkatu 29 C",http://www.vuokraovi.com//vuokra-asunto/helsinki/kamppi/kerrostalo/yksio/187042,60.1651012,24.9290205,Smartmove Oy,None,None
187008,"kerrostalo, 81 m2 | 3h+k",1550.0,"Helsinki, Munkkiniemi, Perustie 11",http://www.vuokraovi.com//vuokra-asunto/helsinki/munkkiniemi/kerrostalo/kolmio/187008,60.19801990000001,24.882095,"Kiinteistomaailma | Hki-Lansi, Munkkiniemi, Amuletti Asunnot Oy",None,None
187002,"kerrostalo, 31 m2 | 1hh + lasitettu parveke",620.0,"Espoo, Matinkyla, Matinkatu 20 D",http://www.vuokraovi.com//vuokra-asunto/espoo/matinkyla/kerrostalo/yksio/187002,60.15807400000001,24.7408252,OVV Asuntopalvelut Oy,None,None
186991,"kerrostalo, 48 m2 | 2h+kk+s",1210.0,"Helsinki, Tali, Kutomotie 8a",http://www.vuokraovi.com//vuokra-asunto/helsinki/tali/kerrostalo/kaksio/186991,60.2141236,24.8723259,SATO Vuokraus ja myynti / Helsinki,None,None
186990,"kerrostalo, 57, 5 m2 | 2h+k+s",1276.0,"Helsinki, Tapanila, Rajatie 6",http://www.vuokraovi.com//vuokra-asunto/helsinki/tapanila/kerrostalo/kaksio/186990,60.2623822,25.0188003,Agency info missing,None,None
186984,"kerrostalo, 58, 5 m2 | 2h, k, kh, s, terassi, piha",830.0,"Helsinki, Malmi, Karviaismaki 9",http://www.vuokraovi.com//vuokra-asunto/helsinki/malmi/kerrostalo/kaksio/186984,60.2450471,25.0086682,Agency info missing,None,None
186970,"kerrostalo, 91 m2 | 4H+K+RT+KPH+S+WC+P",2500.0,"Helsinki, Hietalahti, Hietalahdenranta 19 A",http://www.vuokraovi.com//vuokra-asunto/helsinki/hietalahti/kerrostalo/4h/186970,60.16114469999999,24.9258521,Smartmove Oy,None,None
186952,"kerrostalo, 47, 5 m2 | 1-2 h + k + lasitettu parveke",955.0,"Helsinki, Arabianranta, Arabiankatu 6 D",http://www.vuokraovi.com//vuokra-asunto/helsinki/arabianranta/kerrostalo/kaksio/186952,60.2075376,24.9775788,Asuntoverstas Hallinnointi ja vuokraus Oy,None,None
186926,"kerrostalo, 39 m2 | 1h+k",829.0,"Helsinki, Laajasalo, Svanstrominkuja 9",http://www.vuokraovi.com//vuokra-asunto/helsinki/laajasalo/kerrostalo/yksio/186926,60.1731817,25.0477383,Kruunuasunnot Oy,None,None
186931,"kerrostalo, 58 m2 | 2h + k + kph + lasitettu p",780.0,"Helsinki, Pihlajamaki, Vuolukiventie 4 B",http://www.vuokraovi.com//vuokra-asunto/helsinki/pihlajamaki/kerrostalo/kaksio/186931,60.2356499,25.0061056,Vuokraturva Oy LKV [A],None,None
186932,"kerrostalo, 50 m2 | 2h + k + kph + p",820.0,"Espoo, Tapiola, Pohjantie 8 - 10 C",http://www.vuokraovi.com//vuokra-asunto/espoo/tapiola/kerrostalo/kaksio/186932,60.1769912,24.7993893,Vuokraturva Oy LKV [A],None,None
186930,"kerrostalo, 23 m2 | 1h + kk + kph",680.0,"Helsinki, Sornainen, Vilhonvuorenkuja 10 C",http://www.vuokraovi.com//vuokra-asunto/helsinki/sornainen/kerrostalo/yksio/186930,60.1871919,24.9624034,Vuokraturva Oy LKV [A],None,None
186924,"kerrostalo, 27 m2 | 1h",640.0,"Helsinki, Roihuvuori, Keijukaistenpolku1",http://www.vuokraovi.com//vuokra-asunto/helsinki/roihuvuori/kerrostalo/yksio/186924,60.19537320000001,25.0587406,OVV Asuntopalvelut Oy,None,None
186894,"kerrostalo, 112 m2 | Unfurnished 4r, kitchen",1900.0,"Helsinki, Etu-Toolo, Temppelikatu 9 A",http://www.vuokraovi.com//vuokra-asunto/helsinki/etu-toolo/kerrostalo/4h/186894,60.17370589999999,24.9263375,Celine Oy Ab LKV AFM,None,None
186904,"kerrostalo, 45 m2 | 2h + kk + kph + lasitettu p",780.0,"Helsinki, Mellunmaki, Yllastunturinkuja 1 A",http://www.vuokraovi.com//vuokra-asunto/helsinki/mellunmaki/kerrostalo/kaksio/186904,60.2356741,25.1278232,Vuokraturva Oy LKV [A],None,None
186895,"kerrostalo, 52 m2 | 2 h, pk, kph, vh, 2 parv",1140.0,"Helsinki, Munkkisaari, Hernesaarenkatu 11",http://www.vuokraovi.com//vuokra-asunto/helsinki/munkkisaari/kerrostalo/kaksio/186895,60.1566825,24.9319612,Kiinteistomaailma | Kamppi,None,None
186892,"kerrostalo, 148 m2 | 4-1 h, k, khh, s LOFT",3250.0,"Helsinki, Purotie 3 G",http://www.vuokraovi.com//vuokra-asunto/helsinki/kerrostalo/4h/186892,60.21656600000001,24.8682545,"Uudenmaan Viva Oy Lkv, Suur-Helsinki",None,None
186878,"kerrostalo, 61 m2 | 2h + k + kph + lasitettu p",1195.0,"Helsinki, Katajanokka, Katajanokanranta 1 D",http://www.vuokraovi.com//vuokra-asunto/helsinki/katajanokka/kerrostalo/kaksio/186878,60.16534249999999,24.9720796,Vuokraturva Oy LKV [A],None,None
186852,"rivitalo, 108, 5 m2 | 5h+k+s+2wc+piha+p",1650.0,"Helsinki, Jollas, Harkalahdenkuja 9 A",http://www.vuokraovi.com//vuokra-asunto/helsinki/jollas/rivitalo/5h+/186852,60.15876830000001,25.0712033,Koivuhovi LKV Oy,None,None
186848,"kerrostalo, 76, 3 m2 | 2h + halli + k + kph + wc + al",1450.0,"Helsinki, Etu-Toolo, Caloniuksenkatu 3 B",http://www.vuokraovi.com//vuokra-asunto/helsinki/etu-toolo/kerrostalo/kaksio/186848,60.17401629999999,24.9201519,Vuokraturva Oy LKV [A],None,None
186849,"kerrostalo, 51 m2 | 2h + k + kph + lasitettu p",845.0,"Helsinki, Laajasalo, Ryytikuja 1-3 G",http://www.vuokraovi.com//vuokra-asunto/helsinki/laajasalo/kerrostalo/kaksio/186849,60.1836405,25.0528601,Vuokraturva Oy LKV [A],None,None
186850,"kerrostalo, 35 m2 | 2h + kk + kph",940.0,"Helsinki, Ullanlinna, Vuorimiehenkatu 31 A",http://www.vuokraovi.com//vuokra-asunto/helsinki/ullanlinna/kerrostalo/kaksio/186850,60.1593493,24.9444932,Vuokraturva Oy LKV [A],None,None
186851,"kerrostalo, 41 m2 | 2h + k + kph",1070.0,"Helsinki, Ullanlinna, Kasarmikatu 20 A",http://www.vuokraovi.com//vuokra-asunto/helsinki/ullanlinna/kerrostalo/kaksio/186851,60.16242679999999,24.9479982,Vuokraturva Oy LKV [A],None,None
186847,"kerrostalo, 48 m2 | 2h, kk, s, p",990.0,"Espoo, Leppavaara, Leppavaarankatu 7",http://www.vuokraovi.com//vuokra-asunto/espoo/leppavaara/kerrostalo/kaksio/186847,60.2171101,24.8102652,"Kiinteistomaailma |  Confidence m2 Oy, Espoo",None,None
186836,"kerrostalo, 40, 5 m2 | 1H+AVOK+S",800.0,"Espoo, Matinkyla, Markkinakatu 2",http://www.vuokraovi.com//vuokra-asunto/espoo/matinkyla/kerrostalo/yksio/186836,60.1603426,24.737268,Ovenia (co. Keskinainen Elakevakuutusyhtio Ilmarinen),None,None
186813,"rivitalo, 93, 5 m2 | Row-house; Unfurnished 3r, s, terrace, parking",1650.0,"Espoo, Koukkuniemi, Koukkuniemenkuja 2",http://www.vuokraovi.com//vuokra-asunto/espoo/koukkuniemi/rivitalo/kolmio/186813,60.1536163,24.7645914,Celine Oy Ab LKV AFM,None,None
186805,"kerrostalo, 41 m2 | 2h, avokeittio, sauna /kph",1250.0,"Helsinki, Kamppi, Lonnrotinkatu 22 A",http://www.vuokraovi.com//vuokra-asunto/helsinki/kamppi/kerrostalo/kaksio/186805,60.1646482,24.9339688,Habita Toolo / Etela-Helsingin Habita Oy,None,None
186787,"kerrostalo, 56, 5 m2 | 2h+k",835.0,"Helsinki, Malmi, Markkinatie 15 A 7",http://www.vuokraovi.com//vuokra-asunto/helsinki/malmi/kerrostalo/kaksio/186787,60.250651,25.0014436,Helsingin kaupunki / Kiinteistovirasto / Asunto-osasto,None,None
186783,"kerrostalo, 43 m2 | 2h + avok + kph + wc",1145.0,"Helsinki, Ullanlinna, Pietarinkatu 16 A",http://www.vuokraovi.com//vuokra-asunto/helsinki/ullanlinna/kerrostalo/kaksio/186783,60.15702669999999,24.9462718,Vuokraturva Oy LKV [A],None,None
186758,"omakotitalo, 35 m2 | 2h+k",750.0,"Helsinki, Puistola, Suuntimotie 6",http://www.vuokraovi.com//vuokra-asunto/helsinki/puistola/omakotitalo/kaksio/186758,60.27219520000001,25.0447125,Agency info missing,None,None
186747,"kerrostalo, 40 m2 | 1h + avok + kph + s + vh + alk",1090.0,"Helsinki, Hietalahti, Bulevardi 54 A",http://www.vuokraovi.com//vuokra-asunto/helsinki/hietalahti/kerrostalo/yksio/186747,60.1618751,24.9300165,Vuokraturva Oy LKV [A],None,None
186750,"kerrostalo, 34 m2 | 1h + kk + kph + ranskalainen p",850.0,"Helsinki, Katajanokka, Amiraalinkatu 4 C",http://www.vuokraovi.com//vuokra-asunto/helsinki/katajanokka/kerrostalo/yksio/186750,60.16675439999999,24.973191,Vuokraturva Oy LKV [A],None,None
186752,"kerrostalo, 47, 5 m2 | 2h + avok + kph + wc",1199.0,"Helsinki, Ullanlinna, Vuorimiehenkatu 23b B",http://www.vuokraovi.com//vuokra-asunto/helsinki/ullanlinna/kerrostalo/kaksio/186752,60.1596305,24.9480234,Vuokraturva Oy LKV [A],None,None
186753,"kerrostalo, 46, 4 m2 | 2h + kk + kph",940.0,"Helsinki, Taka-Toolo, Mannerheimintie 94 A",http://www.vuokraovi.com//vuokra-asunto/helsinki/taka-toolo/kerrostalo/kaksio/186753,60.1879702,24.9185109,Vuokraturva Oy LKV [A],None,None
186754,"kerrostalo, 39, 5 m2 | 1h + k + kph",820.0,"Helsinki, Taka-Toolo, Mannerheimintie 94 A",http://www.vuokraovi.com//vuokra-asunto/helsinki/taka-toolo/kerrostalo/yksio/186754,60.1879702,24.9185109,Vuokraturva Oy LKV [A],None,None
186742,"kerrostalo, 73 m2 | 3 h, kk, sauna, lasitettu tera",1190.0,"Helsinki, Myllypuro, Kiviparintie 2",http://www.vuokraovi.com//vuokra-asunto/helsinki/myllypuro/kerrostalo/kolmio/186742,60.22455189999999,25.0745293,Paakaupunkiseutu Yksityisomistajien vuokra-asunnot,None,None
186743,"kerrostalo, 65, 5 m2 | 3 h, avok, vh, kh, lasitettu p",1493.0,"Helsinki, Jatkasaari, Kap Hornin katu 8",http://www.vuokraovi.com//vuokra-asunto/helsinki/jatkasaari/kerrostalo/kolmio/186743,60.15762050000001,24.9203444,Paakaupunkiseutu Yksityisomistajien vuokra-asunnot,None,None
186737,"kerrostalo, 59, 5 m2 | 2 h, kk, vh, kh, pihaterassi",1289.0,"Helsinki, Jatkasaari, Kap Hornin katu 8",http://www.vuokraovi.com//vuokra-asunto/helsinki/jatkasaari/kerrostalo/kaksio/186737,60.15762050000001,24.9203444,Paakaupunkiseutu Yksityisomistajien vuokra-asunnot,None,None
186733,"kerrostalo, 139 m2 | 3h, halli, alkovi, keittio, kp",2700.0,"Helsinki, Kamppi, Lonnrotinkatu 22 A",http://www.vuokraovi.com//vuokra-asunto/helsinki/kamppi/kerrostalo/kolmio/186733,60.1646482,24.9339688,Habita Toolo / Etela-Helsingin Habita Oy,None,None
186711,"kerrostalo, 25, 7 m2 | 1h+avok",720.0,"Helsinki, Hakaniemi, Sornaisten rantatie 1B",http://www.vuokraovi.com//vuokra-asunto/helsinki/hakaniemi/kerrostalo/yksio/186711,60.17332440000001,24.9410248,Agency info missing,None,None
186625,"kerrostalo, 42 m2 | 1-2h+k",1050.0,"Helsinki, Kalasatama, Capellan puistotie 6",http://www.vuokraovi.com//vuokra-asunto/helsinki/kalasatama/kerrostalo/kaksio/186625,60.1842406,24.982403,Agency info missing,None,None
186708,"kerrostalo, 39, 5 m2 | 1 h, alkovi, kk, kh, ransk. pa",984.0,"Helsinki, Kamppi, Eerikinkatu 41",http://www.vuokraovi.com//vuokra-asunto/helsinki/kamppi/kerrostalo/yksio/186708,60.1638959,24.9255666,Paakaupunkiseutu Yksityisomistajien vuokra-asunnot,None,None
186704,"kerrostalo, 48 m2 | 1h+k+kh+alkovi",880.0,"Helsinki, Vallila, Eurantie 12 A",http://www.vuokraovi.com//vuokra-asunto/helsinki/vallila/kerrostalo/yksio/186704,60.1960354,24.9621233,"Helsingin OPKK, Hakaniemi",None,None
186695,"kerrostalo, 53 m2 | 3h, k, kph, wc",2072.0,"Helsinki, Vahantuvantie 6",http://www.vuokraovi.com//vuokra-asunto/helsinki/kerrostalo/kolmio/186695,60.23280200000001,24.8494655,Majoituspalvelu Forenom Oy,None,None
186696,"kerrostalo, 37 m2 | 2h, kk, kph, p",1418.0,"Espoo, Menninkaisentie 5",http://www.vuokraovi.com//vuokra-asunto/espoo/kerrostalo/kaksio/186696,60.1799905,24.8099659,Majoituspalvelu Forenom Oy,None,None
186687,"kerrostalo, 39 m2 | 1 h, kk, alkovi, ransk.parveke",974.0,"Helsinki, Kamppi, Eerikinkatu 41",http://www.vuokraovi.com//vuokra-asunto/helsinki/kamppi/kerrostalo/yksio/186687,60.1638959,24.9255666,Paakaupunkiseutu Yksityisomistajien vuokra-asunnot,None,None
186641,"kerrostalo, 59, 5 m2 | 2 h, kk, sauna, ranskalainen p",1300.0,"Helsinki, Kamppi, Eerikinkatu 41",http://www.vuokraovi.com//vuokra-asunto/helsinki/kamppi/kerrostalo/kaksio/186641,60.1638959,24.9255666,Paakaupunkiseutu Yksityisomistajien vuokra-asunnot,None,None
186642,"kerrostalo, 65 m2 | 2 h, kk, sauna, terassiparveke",1338.0,"Helsinki, Kamppi, Eerikinkatu 41",http://www.vuokraovi.com//vuokra-asunto/helsinki/kamppi/kerrostalo/kaksio/186642,60.1638959,24.9255666,Paakaupunkiseutu Yksityisomistajien vuokra-asunnot,None,None
186643,"kerrostalo, 65 m2 | 2 h, kk, sauna, parveke",1410.0,"Helsinki, Kamppi, Eerikinkatu 41",http://www.vuokraovi.com//vuokra-asunto/helsinki/kamppi/kerrostalo/kaksio/186643,60.1638959,24.9255666,Paakaupunkiseutu Yksityisomistajien vuokra-asunnot,None,None
186630,"kerrostalo, 53, 5 m2 | 2 h, kt, parveke",1205.0,"Helsinki, Sornainen, Paaskylanrinne 8 A",http://www.vuokraovi.com//vuokra-asunto/helsinki/sornainen/kerrostalo/kaksio/186630,60.1881862,24.9666316,Suomen Laatuasunnot Oy,None,None
186629,"kerrostalo, 33, 5 m2 | 1h + k + kph + lasitettu p",780.0,"Helsinki, Niemenmaki, Niemenmaentie 10 A",http://www.vuokraovi.com//vuokra-asunto/helsinki/niemenmaki/kerrostalo/yksio/186629,60.2055539,24.8833344,Vuokraturva Oy LKV [A],None,None
186606,"kerrostalo, 76, 5 m2 | 3H+K+S",981.07,"Espoo, Tuomarila, Tuomarilankatu 1",http://www.vuokraovi.com//vuokra-asunto/espoo/tuomarila/kerrostalo/kolmio/186606,60.20516540000001,24.6839006,"Ovenia Isannointi Oy, Helsinki ( Avara)",None,None
186584,"kerrostalo, 78 m2 | FURNISHED 3 rooms, kitchenette",2100.0,"Helsinki, Etu-Toolo, Tunturikatu 11 B",http://www.vuokraovi.com//vuokra-asunto/helsinki/etu-toolo/kerrostalo/kolmio/186584,60.1743475,24.9254216,Celine Oy Ab LKV AFM,None,None
186594,"kerrostalo, 46, 5 m2 | 2 h, kk, kh",830.0,"Helsinki, Lauttasaari, Tallbergin Puistotie 14",http://www.vuokraovi.com//vuokra-asunto/helsinki/lauttasaari/kerrostalo/kaksio/186594,60.1577553,24.8764969,Paakaupunkiseutu Yksityisomistajien vuokra-asunnot,None,None
186546,"kerrostalo, 24 m2 | FURNISHED STUDIO",850.0,"Helsinki, Taka-Toolo, Valhallankatu 5 A",http://www.vuokraovi.com//vuokra-asunto/helsinki/taka-toolo/kerrostalo/yksio/186546,60.18402289999999,24.913225,Celine Oy Ab LKV AFM,None,None
186541,"kerrostalo, 87 m2 | 4H+K",1571.0,"Helsinki, Merihaka, Haapaniemenkatu 11",http://www.vuokraovi.com//vuokra-asunto/helsinki/merihaka/kerrostalo/4h/186541,60.17895480000001,24.9603821,Lumo / VVO-kotikeskus PKS,None,None
186548,"kerrostalo, 20 m2 | 1h + k +kh",470.0,"Helsinki, Kumpula, Koskelantie 37",http://www.vuokraovi.com//vuokra-asunto/helsinki/kumpula/kerrostalo/yksio/186548,60.21424520000001,24.9619106,OVV Asuntopalvelut Oy,None,None
186527,"kerrostalo, 39, 5 m2 | 1h + avok + kph",935.0,"Helsinki, Punavuori, Annankatu 4 A",http://www.vuokraovi.com//vuokra-asunto/helsinki/punavuori/kerrostalo/yksio/186527,60.163154,24.9418764,Vuokraturva Oy LKV [A],None,None
186492,"kerrostalo, 53 m2 | 2h + k + kph + s + p",880.0,"Espoo, Kivenlahti, Kivenlahdenkatu 11 A",http://www.vuokraovi.com//vuokra-asunto/espoo/kivenlahti/kerrostalo/kaksio/186492,60.15339780000001,24.6332118,Vuokraturva Oy LKV [A],None,None
186491,"kerrostalo, 18 m2 | 4h + k + kh + wc",540.0,"Helsinki, Punavuori, Fredrikinkatu 41 B",http://www.vuokraovi.com//vuokra-asunto/helsinki/punavuori/kerrostalo/yksio/186491,60.1651469,24.9360755,Topreal,None,None
186482,"kerrostalo, 47, 5 m2 | 1h+k",950.0,"Helsinki, Toolo, Stenbackinkatu 6 A",http://www.vuokraovi.com//vuokra-asunto/helsinki/toolo/kerrostalo/yksio/186482,60.18922600000001,24.9149134,My House Oy LKV,None,None
186480,"kerrostalo, 72 m2 | 2h + k + kph + wc",1380.0,"Helsinki, Kruununhaka, Unioninkatu 45 A",http://www.vuokraovi.com//vuokra-asunto/helsinki/kruununhaka/kerrostalo/kaksio/186480,60.1753321,24.9505144,Vuokraturva Oy LKV [A],None,None
186479,"kerrostalo, 44, 1 m2 | 2h ja avokeittio",870.0,"Helsinki, Kulosaari, Kulosaaren puistotie 50",http://www.vuokraovi.com//vuokra-asunto/helsinki/kulosaari/kerrostalo/kaksio/186479,60.18955889999999,25.0106104,Agency info missing,None,None
186473,"kerrostalo, 51 m2 | 2 h, avokeittio, kph, sauna, tilava parvi",1450.0,"Helsinki, Kruununhaka, Vironkatu 7",http://www.vuokraovi.com//vuokra-asunto/helsinki/kruununhaka/kerrostalo/kaksio/186473,60.1724513,24.9552271,Agency info missing,None,None
186470,"erillistalo, 16 m2 | Omahuone, jaettu kph",1050.0,"Espoo, Otaniemi, Kivimiehentie 2",http://www.vuokraovi.com//vuokra-asunto/espoo/otaniemi/erillistalo/yksio/186470,60.17986649999999,24.8287218,Agency info missing,None,None
186466,"kerrostalo, 52 m2 | 2h, k, kh, parveke",950.0,"Helsinki, Etela-Haaga, Artturi Kannistontie 8",http://www.vuokraovi.com//vuokra-asunto/helsinki/etela-haaga/kerrostalo/kaksio/186466,60.2187258,24.8954768,Paakaupunkiseutu Yksityisomistajien vuokra-asunnot,None,None
186467,"kerrostalo, 23 m2 | 1 h, kk, kh",660.0,"Helsinki, Lauttasaari, Lauttasaarentie 32",http://www.vuokraovi.com//vuokra-asunto/helsinki/lauttasaari/kerrostalo/yksio/186467,60.16036789999999,24.8799917,Paakaupunkiseutu Yksityisomistajien vuokra-asunnot,None,None
186441,"kerrostalo, 74, 5 m2 | 3h+k",1180.0,"Helsinki, Ita-Pasila, Sahkottajankatu 4",http://www.vuokraovi.com//vuokra-asunto/helsinki/ita-pasila/kerrostalo/kolmio/186441,60.1976578,24.9393428,SATO Vuokraus ja myynti / Helsinki,None,None
186444,"kerrostalo, 45, 5 m2 | 2h+kk",828.0,"Helsinki, Mellunkyla, Lupajantie 2",http://www.vuokraovi.com//vuokra-asunto/helsinki/mellunkyla/kerrostalo/kaksio/186444,60.233229,25.1043706,SATO Vuokraus ja myynti / Helsinki,None,None
186393,"kerrostalo, 56 m2 | 2H+K+S",945.0,"Helsinki, Viikki, Agronominraitti 2",http://www.vuokraovi.com//vuokra-asunto/helsinki/viikki/kerrostalo/kaksio/186393,60.2339619,25.0354691,"Ovenia Isannointi Oy, Helsinki ( Avara)",None,None
186389,"kerrostalo, 68 m2 | 3h, k, s",1350.0,"Helsinki, Aurinkolahti, Nukkeruusunkuja 3",http://www.vuokraovi.com//vuokra-asunto/helsinki/aurinkolahti/kerrostalo/kolmio/186389,60.2035109,25.1485098,"Uudenmaan Viva Oy Lkv, Suur-Helsinki",None,None
186160,"kerrostalo, 58 m2 | 2h+k+kph+parveke",850.0,"Helsinki, Oulunkyla, Makitorpantie 18-20 B",http://www.vuokraovi.com//vuokra-asunto/helsinki/oulunkyla/kerrostalo/kaksio/186160,60.224645,24.9517451,Agency info missing,None,None
186360,"kerrostalo, 27 m2 | 1h+k+kph",830.0,"Helsinki, Kallio, Toinen Linja 15 A",http://www.vuokraovi.com//vuokra-asunto/helsinki/kallio/kerrostalo/yksio/186360,60.1822967,24.9468675,"Himat Oy LKV, Helsinki",None,None
186352,"kerrostalo, 49 m2 | 2 h, kk, kh, p",850.0,"Helsinki, Lauttasaari, Lauttasaarentie 24-26",http://www.vuokraovi.com//vuokra-asunto/helsinki/lauttasaari/kerrostalo/kaksio/186352,60.1604444,24.8833004,Paakaupunkiseutu Yksityisomistajien vuokra-asunnot,None,None
186349,"kerrostalo, 63, 5 m2 | 3h, k, kh",1360.0,"Helsinki, Sornainen, Lintulahdenkatu 6",http://www.vuokraovi.com//vuokra-asunto/helsinki/sornainen/kerrostalo/kolmio/186349,60.1842452,24.9613686,Agency info missing,None,None
186331,"kerrostalo, 59 m2 | 2h + k + kph + wc + s + vh + p",1275.0,"Helsinki, Hietalahti, Kalevankatu 56 a B",http://www.vuokraovi.com//vuokra-asunto/helsinki/hietalahti/kerrostalo/kaksio/186331,60.16253769999999,24.9246176,Vuokraturva Oy LKV [A],None,None
186328,"rivitalo, 60 m2 | Oh+alkovi+avoK+sh+ IIkrs Mh",670.0,"Espoo, Bodom, Bodomintie 4",http://www.vuokraovi.com//vuokra-asunto/espoo/bodom/rivitalo/kaksio/186328,60.259886,24.6969654,Agency info missing,None,None
186324,"kerrostalo, 45 m2 | 2h+kk+s",857.0,"Espoo, Vallikallio, Porarinkatu 8",http://www.vuokraovi.com//vuokra-asunto/espoo/vallikallio/kerrostalo/kaksio/186324,60.22472719999999,24.8171228,SATO Vuokraus ja myynti / Helsinki,None,None
186325,"kerrostalo, 48 m2 | 2h+k",1465.0,"Helsinki, Taka-Toolo, Stenbackinkatu 5",http://www.vuokraovi.com//vuokra-asunto/helsinki/taka-toolo/kerrostalo/kaksio/186325,60.1893932,24.9150765,SATO Vuokraus ja myynti / Helsinki,None,None
186321,"kerrostalo, 76 m2 | 3h+k+parveke",1077.0,"Helsinki, Vuosaari, Ulappasaarentie 4",http://www.vuokraovi.com//vuokra-asunto/helsinki/vuosaari/kerrostalo/kolmio/186321,60.21052989999999,25.137397,Ovenia (co. Keskinainen Elakevakuutusyhtio Ilmarinen),None,None
186303,"kerrostalo, 47, 5 m2 | 2H+K+KPH+P",750.0,"Espoo, Kilo, Lansantie 23A A",http://www.vuokraovi.com//vuokra-asunto/espoo/kilo/kerrostalo/kaksio/186303,60.212059,24.7675811,Smartmove Oy,None,None
186307,"kerrostalo, 98 m2 | 4h, kk, wc",2679.0,"Helsinki, Munkkiniemi, Kadetintie 6",http://www.vuokraovi.com//vuokra-asunto/helsinki/munkkiniemi/kerrostalo/4h/186307,60.1955778,24.8788576,Majoituspalvelu Forenom Oy,None,None
186269,"kerrostalo, 33, 25 m2 | 1huone, keittio, alkovi, parvi",850.0,"Helsinki, Kamppi, Kalevankatu 52",http://www.vuokraovi.com//vuokra-asunto/helsinki/kamppi/kerrostalo/yksio/186269,60.1631979,24.9265157,Kiinteistomaailma | Kamppi,None,None
186259,"erillistalo, 83 m2 | 2H+K+S",1215.0,"Espoo, Kaitaa, Jarvitorppa 4",http://www.vuokraovi.com//vuokra-asunto/espoo/kaitaa/erillistalo/kaksio/186259,60.1479989,24.671198,Asokodit,None,None
186254,"kerrostalo, 101 m2 | Unfurnished 3r, eat-in kitchen",2000.0,"Helsinki, Katajanokka, Luotsikatu 12 A",http://www.vuokraovi.com//vuokra-asunto/helsinki/katajanokka/kerrostalo/kolmio/186254,60.1678666,24.966363,Celine Oy Ab LKV AFM,None,None
186246,"kerrostalo, 54, 5 m2 | 2h+k+sauna+parveke",1008.0,"Helsinki, Etela-Haaga, Hellemaenpolku 10",http://www.vuokraovi.com//vuokra-asunto/helsinki/etela-haaga/kerrostalo/kaksio/186246,60.21140369999999,24.8862775,Ovenia (co. Keskinainen Elakevakuutusyhtio Ilmarinen),None,None
186238,"kerrostalo, 75 m2 | 3h+k+s+p",976.19,"Espoo, Espoon keskus, Espoonaukio 7 A 8",http://www.vuokraovi.com//vuokra-asunto/espoo/espoon+keskus/kerrostalo/kolmio/186238,60.2064472,24.6591104,Keva,None,None
186229,"kerrostalo, 47, 5 m2 | 2h+kk+sauna+las.parveke",798.71,"Helsinki, Vuosaari, Nukkeruusunkuja 4 B 40",http://www.vuokraovi.com//vuokra-asunto/helsinki/vuosaari/kerrostalo/kaksio/186229,60.2034324,25.1480954,Keva,None,None
186227,"kerrostalo, 48, 5 m2 | 2h+kk+s+las.p",928.51,"Helsinki, Herttoniemenranta, Niittaajankatu 1 A 5",http://www.vuokraovi.com//vuokra-asunto/helsinki/herttoniemenranta/kerrostalo/kaksio/186227,60.1909655,25.0254333,Keva,None,None
186214,"kerrostalo, 45 m2 | 2h+kk+sauna+terassi",805.0,"Helsinki, Reimarla, Piispantie 2",http://www.vuokraovi.com//vuokra-asunto/helsinki/reimarla/kerrostalo/kaksio/186214,60.2296223,24.8469396,Ovenia (co. Keskinainen Elakevakuutusyhtio Ilmarinen),None,None
186204,"kerrostalo, 69 m2 | 3h+k",997.0,"Helsinki, Malminkartano, Pihkatie 6 F 55",http://www.vuokraovi.com//vuokra-asunto/helsinki/malminkartano/kerrostalo/kolmio/186204,60.2523235,24.8560735,Helsingin kaupunki / Kiinteistovirasto / Asunto-osasto,None,None
186082,"rivitalo, 104, 5 m2 | 4h+k",2200.0,"Helsinki, Tapanila, Kotinummentie 66",http://www.vuokraovi.com//vuokra-asunto/helsinki/tapanila/rivitalo/4h/186082,60.2667836,25.0149295,Agency info missing,None,None
186184,"kerrostalo, 46 m2 | 2h + k",1190.0,"Helsinki, Etu-Toolo, Etelainen Hesperiankatu 28 C",http://www.vuokraovi.com//vuokra-asunto/helsinki/etu-toolo/kerrostalo/kaksio/186184,60.1762483,24.9212408,Vuokraturva Oy LKV [A],None,None
186188,"kerrostalo, 34 m2 | 1h + kk + kph + lasitettu p",740.0,"Espoo, Tapiola, Itatuulenkuja 1 B",http://www.vuokraovi.com//vuokra-asunto/espoo/tapiola/kerrostalo/yksio/186188,60.1738671,24.8031969,Vuokraturva Oy LKV [A],None,None
186189,"kerrostalo, 59 m2 | 2h + avok + kph + s + lasitett",1190.0,"Helsinki, Lauttasaari, Vattuniemenkuja 3 A",http://www.vuokraovi.com//vuokra-asunto/helsinki/lauttasaari/kerrostalo/kaksio/186189,60.1538888,24.8858381,Vuokraturva Oy LKV [A],None,None
186191,"kerrostalo, 38 m2 | 2h + kk + kph + ranskalainen p",820.0,"Helsinki, Munkkivuori, Ulvilantie 19b A",http://www.vuokraovi.com//vuokra-asunto/helsinki/munkkivuori/kerrostalo/kaksio/186191,60.208015,24.864353,Vuokraturva Oy LKV [A],None,None
186178,"kerrostalo, 53, 5 m2 | 2h, k, lasitettu parveke",916.0,"Helsinki, Konala, Ristipellontie 6",http://www.vuokraovi.com//vuokra-asunto/helsinki/konala/kerrostalo/kaksio/186178,60.2386042,24.8519191,Paakaupunkiseutu Suuromistajien vuokra-asunnot,None,None
186180,"kerrostalo, 72, 5 m2 | 3h, k, s, lasitettu parveke",1218.0,"Espoo, Suurpelto, Piilipuuntie 17",http://www.vuokraovi.com//vuokra-asunto/espoo/suurpelto/kerrostalo/kolmio/186180,60.1874631,24.7393415,Paakaupunkiseutu Suuromistajien vuokra-asunnot,None,None
186181,"kerrostalo, 62 m2 | 3h, kk",1064.0,"Espoo, Suurpelto, Piilipuuntie 17",http://www.vuokraovi.com//vuokra-asunto/espoo/suurpelto/kerrostalo/kolmio/186181,60.1874631,24.7393415,Paakaupunkiseutu Suuromistajien vuokra-asunnot,None,None
186172,"kerrostalo, 72 m2 | 3 h + k + parveke",880.0,"Espoo, Matinkyla, Matinraitti 9 F",http://www.vuokraovi.com//vuokra-asunto/espoo/matinkyla/kerrostalo/kolmio/186172,60.15783579999999,24.7465786,Asuntoverstas Hallinnointi ja vuokraus Oy,None,None
186164,"erillistalo, 264 m2 | VILLA; 8r, kitchen, sauna, balcony, GARAGE",4900.0,"Espoo, Koukkuniemi, Koukkuniemenkuja 1",http://www.vuokraovi.com//vuokra-asunto/espoo/koukkuniemi/erillistalo/5h+/186164,60.15346580000001,24.7643953,Celine Oy Ab LKV AFM,None,None
186149,"kerrostalo, 47, 5 m2 | 2h, kt, s, lasitettu parveke",879.0,"Espoo, Suurpelto, Piilipuuntie 17",http://www.vuokraovi.com//vuokra-asunto/espoo/suurpelto/kerrostalo/kaksio/186149,60.1874631,24.7393415,Paakaupunkiseutu Suuromistajien vuokra-asunnot,None,None
186150,"kerrostalo, 45, 5 m2 | 2h, kt, s, lasitettu parveke",819.0,"Espoo, Suurpelto, Piilipuuntie 17",http://www.vuokraovi.com//vuokra-asunto/espoo/suurpelto/kerrostalo/kaksio/186150,60.1874631,24.7393415,Paakaupunkiseutu Suuromistajien vuokra-asunnot,None,None
186151,"kerrostalo, 52, 5 m2 | 2h, kk, s, lasitettu parveke",959.0,"Espoo, Suurpelto, Piilipuuntie 17",http://www.vuokraovi.com//vuokra-asunto/espoo/suurpelto/kerrostalo/kaksio/186151,60.1874631,24.7393415,Paakaupunkiseutu Suuromistajien vuokra-asunnot,None,None
186152,"kerrostalo, 53, 5 m2 | 3h, kt, lasitettu parveke",969.0,"Espoo, Suurpelto, Piilipuuntie 17",http://www.vuokraovi.com//vuokra-asunto/espoo/suurpelto/kerrostalo/kolmio/186152,60.1874631,24.7393415,Paakaupunkiseutu Suuromistajien vuokra-asunnot,None,None
186153,"kerrostalo, 55, 5 m2 | 2h, kk, s, lasitettu parveke",1010.0,"Espoo, Suurpelto, Piilipuuntie 17",http://www.vuokraovi.com//vuokra-asunto/espoo/suurpelto/kerrostalo/kaksio/186153,60.1874631,24.7393415,Paakaupunkiseutu Suuromistajien vuokra-asunnot,None,None
186155,"kerrostalo, 54 m2 | 2h, kk, s, lasitettu parveke",998.0,"Espoo, Suurpelto, Piilipuuntie 17",http://www.vuokraovi.com//vuokra-asunto/espoo/suurpelto/kerrostalo/kaksio/186155,60.1874631,24.7393415,Paakaupunkiseutu Suuromistajien vuokra-asunnot,None,None
186156,"kerrostalo, 51, 5 m2 | 2h, kt, s, lasitettu parveke",969.0,"Espoo, Suurpelto, Piilipuuntie 17",http://www.vuokraovi.com//vuokra-asunto/espoo/suurpelto/kerrostalo/kaksio/186156,60.1874631,24.7393415,Paakaupunkiseutu Suuromistajien vuokra-asunnot,None,None
186146,"kerrostalo, 28, 5 m2 | 1h, kk, kph",750.0,"Helsinki, Lauttasaari, Katajaharjuntie 19 B",http://www.vuokraovi.com//vuokra-asunto/helsinki/lauttasaari/kerrostalo/yksio/186146,60.1675027,24.857637,Kiinteistotoimisto Takio LKV [A],None,None
186147,"kerrostalo, 56 m2 | 2 h, k, saunaosasto, parveke",850.0,"Espoo, Matinkyla, Piispanpelto 10 A",http://www.vuokraovi.com//vuokra-asunto/espoo/matinkyla/kerrostalo/kaksio/186147,60.1661368,24.7393496,Kiinteistotoimisto Takio LKV [A],None,None
186139,"kerrostalo, 50, 5 m2 | 2h + kk + kph + lasitettu p",750.0,"Helsinki, Malminkartano, Rukkilantie 2 E",http://www.vuokraovi.com//vuokra-asunto/helsinki/malminkartano/kerrostalo/kaksio/186139,60.2517088,24.8654902,Vuokraturva Oy LKV [A],None,None
186140,"kerrostalo, 46 m2 | 2h + kk + kph",940.0,"Helsinki, Kamppi, Uudenmaankatu 31 D",http://www.vuokraovi.com//vuokra-asunto/helsinki/kamppi/kerrostalo/kaksio/186140,60.16319470000001,24.9367273,Vuokraturva Oy LKV [A],None,None
186135,"kerrostalo, 37, 5 m2 | 1h, kt, s, lasitettu parveke",769.0,"Espoo, Suurpelto, Piilipuuntie 17",http://www.vuokraovi.com//vuokra-asunto/espoo/suurpelto/kerrostalo/yksio/186135,60.1874631,24.7393415,Paakaupunkiseutu Suuromistajien vuokra-asunnot,None,None
186129,"kerrostalo, 29 m2 | 1h + avok + kph + alkovi",820.0,"Helsinki, Punavuori, Punavuorenkatu 15 A",http://www.vuokraovi.com//vuokra-asunto/helsinki/punavuori/kerrostalo/yksio/186129,60.16049169999999,24.9356415,Vuokraturva Oy LKV [A],None,None
186130,"kerrostalo, 29, 6 m2 | 1h + kk + kph + vh + ranskalai",720.0,"Helsinki, Munkkiniemi, Laajalahdentie 28 C",http://www.vuokraovi.com//vuokra-asunto/helsinki/munkkiniemi/kerrostalo/yksio/186130,60.2002685,24.8769557,Vuokraturva Oy LKV [A],None,None
186099,"rivitalo, 92, 5 m2 | 4H+K+S",1470.0,"Espoo, Iivisniemi, Arttelikuja 1",http://www.vuokraovi.com//vuokra-asunto/espoo/iivisniemi/rivitalo/4h/186099,60.1457643,24.7036174,Asokodit,None,None
186100,"erillistalo, 107, 5 m2 | 5H+K+S",1650.0,"Espoo, Malminmaki, Malminmaentie 5",http://www.vuokraovi.com//vuokra-asunto/espoo/malminmaki/erillistalo/5h+/186100,60.1811079,24.6839356,Asokodit,None,None
186083,"rivitalo, 156 m2 | 5h, th, k, rt, 2xkh, wc, at",2450.0,"Espoo, Haukilahti, Lahnatie 7",http://www.vuokraovi.com//vuokra-asunto/espoo/haukilahti/rivitalo/5h+/186083,60.16418669999999,24.7667875,Paakaupunkiseutu Yksityisomistajien vuokra-asunnot,None,None
186068,"kerrostalo, 78 m2 | 3H+K",1814.0,"Helsinki, Katajanokka, Linnankatu 11",http://www.vuokraovi.com//vuokra-asunto/helsinki/katajanokka/kerrostalo/kolmio/186068,60.1654332,24.9708428,Lumo / VVO-kotikeskus PKS,None,None
186069,"rivitalo, 115 m2 | 5H+K+S",2414.0,"Helsinki, Lehtisaari, Lehtisaarentie 14",http://www.vuokraovi.com//vuokra-asunto/helsinki/lehtisaari/rivitalo/5h+/186069,60.1773462,24.8535154,Lumo / VVO-kotikeskus PKS,None,None
186035,"kerrostalo, 62 m2 | 2h+k",981.0,"Espoo, Laajalahti, Heinjoenpolku 2 K-O",http://www.vuokraovi.com//vuokra-asunto/espoo/laajalahti/kerrostalo/kaksio/186035,60.2035545,24.802476,SATO Vuokraus ja myynti / Helsinki,None,None
186039,"kerrostalo, 77 m2 | 3h+k+s",1231.0,"Espoo, Leppavaara, Perkkaankuja 3",http://www.vuokraovi.com//vuokra-asunto/espoo/leppavaara/kerrostalo/kolmio/186039,60.2166728,24.8235791,SATO Vuokraus ja myynti / Helsinki,None,None
186021,"kerrostalo, 77 m2 | 3h, ak, kph, wc",2072.0,"Helsinki, Kasityolaisentie 4-10",http://www.vuokraovi.com//vuokra-asunto/helsinki/kerrostalo/kolmio/186021,60.2732085,25.033676,Majoituspalvelu Forenom Oy,None,None
186022,"kerrostalo, 78 m2 | 3h, k, kph, wc",2077.0,"Helsinki, Risupadontie 6",http://www.vuokraovi.com//vuokra-asunto/helsinki/kerrostalo/kolmio/186022,60.2332527,24.9464955,Majoituspalvelu Forenom Oy,None,None
186023,"kerrostalo, 78 m2 | 3h, k, kph, wc, p",2330.0,"Espoo, Soukka, Soukantie 14",http://www.vuokraovi.com//vuokra-asunto/espoo/soukka/kerrostalo/kolmio/186023,60.14138149999999,24.6711663,Majoituspalvelu Forenom Oy,None,None
186026,"kerrostalo, 72 m2 | 3h, kk, wc",2274.0,"Helsinki, Luutnantintie 3",http://www.vuokraovi.com//vuokra-asunto/helsinki/kerrostalo/kolmio/186026,60.248621,24.8646033,Majoituspalvelu Forenom Oy,None,None
185998,"kerrostalo, 146 m2 | FURNISHED/Unfurnished 5r, kitchen, dining room",4250.0,"Helsinki, Kluuvi, Vuorikatu 8 B",http://www.vuokraovi.com//vuokra-asunto/helsinki/kluuvi/kerrostalo/5h+/185998,60.1706243,24.947406,Celine Oy Ab LKV AFM,None,None
186003,"omakotitalo, 185 m2 | 5h+k+s+uima-allas",2300.0,"Helsinki, Marjaniemi, Marjaniementie 32 A",http://www.vuokraovi.com//vuokra-asunto/helsinki/marjaniemi/omakotitalo/5h+/186003,60.2034439,25.0859685,Huom! | Suomen Asuntopalvelut Oy,None,None
185995,"kerrostalo, 60 m2 | 3h, k, kh, parveke",1100.0,"Espoo, Lahderanta, Lahderanta 22",http://www.vuokraovi.com//vuokra-asunto/espoo/lahderanta/kerrostalo/kolmio/185995,60.2416358,24.7425319,Paakaupunkiseutu Yksityisomistajien vuokra-asunnot,None,None
185923,"kerrostalo, 72, 5 m2 | 3H+KT",1640.0,"Helsinki, Kalasatama, Capellan puistotie 4",http://www.vuokraovi.com//vuokra-asunto/helsinki/kalasatama/kerrostalo/kolmio/185923,60.1842406,24.982403,Lumo / VVO-kotikeskus PKS,None,None
185924,"kerrostalo, 55, 5 m2 | 1H+K",1307.0,"Helsinki, Kalasatama, Capellan puistotie 4",http://www.vuokraovi.com//vuokra-asunto/helsinki/kalasatama/kerrostalo/yksio/185924,60.1842406,24.982403,Lumo / VVO-kotikeskus PKS,None,None
185927,"kerrostalo, 51, 5 m2 | 2H+KT+S",1351.0,"Helsinki, Kalasatama, Capellan puistotie 4",http://www.vuokraovi.com//vuokra-asunto/helsinki/kalasatama/kerrostalo/kaksio/185927,60.1842406,24.982403,Lumo / VVO-kotikeskus PKS,None,None
185928,"kerrostalo, 47 m2 | 2H+KT",1257.0,"Helsinki, Kalasatama, Capellan puistotie 4",http://www.vuokraovi.com//vuokra-asunto/helsinki/kalasatama/kerrostalo/kaksio/185928,60.1842406,24.982403,Lumo / VVO-kotikeskus PKS,None,None
185929,"kerrostalo, 52, 5 m2 | 2H+KT",1301.0,"Helsinki, Kalasatama, Capellan puistotie 4",http://www.vuokraovi.com//vuokra-asunto/helsinki/kalasatama/kerrostalo/kaksio/185929,60.1842406,24.982403,Lumo / VVO-kotikeskus PKS,None,None
185930,"kerrostalo, 64, 5 m2 | 3H+KK+RT",1549.0,"Helsinki, Kalasatama, Capellan puistotie 4",http://www.vuokraovi.com//vuokra-asunto/helsinki/kalasatama/kerrostalo/kolmio/185930,60.1842406,24.982403,Lumo / VVO-kotikeskus PKS,None,None
185931,"kerrostalo, 51, 5 m2 | 2H+KT+S",1363.0,"Helsinki, Kalasatama, Capellan puistotie 4",http://www.vuokraovi.com//vuokra-asunto/helsinki/kalasatama/kerrostalo/kaksio/185931,60.1842406,24.982403,Lumo / VVO-kotikeskus PKS,None,None
185932,"kerrostalo, 47 m2 | 2H+KT",1275.0,"Helsinki, Kalasatama, Capellan puistotie 4",http://www.vuokraovi.com//vuokra-asunto/helsinki/kalasatama/kerrostalo/kaksio/185932,60.1842406,24.982403,Lumo / VVO-kotikeskus PKS,None,None
185933,"kerrostalo, 52, 5 m2 | 2H+KT",1320.0,"Helsinki, Kalasatama, Capellan puistotie 4",http://www.vuokraovi.com//vuokra-asunto/helsinki/kalasatama/kerrostalo/kaksio/185933,60.1842406,24.982403,Lumo / VVO-kotikeskus PKS,None,None
185934,"kerrostalo, 64, 5 m2 | 3H+KK+RT",1564.0,"Helsinki, Kalasatama, Capellan puistotie 4",http://www.vuokraovi.com//vuokra-asunto/helsinki/kalasatama/kerrostalo/kolmio/185934,60.1842406,24.982403,Lumo / VVO-kotikeskus PKS,None,None
185935,"kerrostalo, 51, 5 m2 | 2H+KT+S",1376.0,"Helsinki, Kalasatama, Capellan puistotie 4",http://www.vuokraovi.com//vuokra-asunto/helsinki/kalasatama/kerrostalo/kaksio/185935,60.1842406,24.982403,Lumo / VVO-kotikeskus PKS,None,None
185936,"kerrostalo, 47 m2 | 2H+KT",1281.0,"Helsinki, Kalasatama, Capellan puistotie 4",http://www.vuokraovi.com//vuokra-asunto/helsinki/kalasatama/kerrostalo/kaksio/185936,60.1842406,24.982403,Lumo / VVO-kotikeskus PKS,None,None
185937,"kerrostalo, 52, 5 m2 | 2H+KT",1326.0,"Helsinki, Kalasatama, Capellan puistotie 4",http://www.vuokraovi.com//vuokra-asunto/helsinki/kalasatama/kerrostalo/kaksio/185937,60.1842406,24.982403,Lumo / VVO-kotikeskus PKS,None,None
185938,"kerrostalo, 64, 5 m2 | 3H+KK+RT",1579.0,"Helsinki, Kalasatama, Capellan puistotie 4",http://www.vuokraovi.com//vuokra-asunto/helsinki/kalasatama/kerrostalo/kolmio/185938,60.1842406,24.982403,Lumo / VVO-kotikeskus PKS,None,None
185939,"kerrostalo, 51, 5 m2 | 2H+KT+S",1389.0,"Helsinki, Kalasatama, Capellan puistotie 4",http://www.vuokraovi.com//vuokra-asunto/helsinki/kalasatama/kerrostalo/kaksio/185939,60.1842406,24.982403,Lumo / VVO-kotikeskus PKS,None,None
185941,"kerrostalo, 52, 5 m2 | 2H+KT",1345.0,"Helsinki, Kalasatama, Capellan puistotie 4",http://www.vuokraovi.com//vuokra-asunto/helsinki/kalasatama/kerrostalo/kaksio/185941,60.1842406,24.982403,Lumo / VVO-kotikeskus PKS,None,None
185942,"kerrostalo, 64, 5 m2 | 3H+KK+RT",1608.0,"Helsinki, Kalasatama, Capellan puistotie 4",http://www.vuokraovi.com//vuokra-asunto/helsinki/kalasatama/kerrostalo/kolmio/185942,60.1842406,24.982403,Lumo / VVO-kotikeskus PKS,None,None
185943,"kerrostalo, 40 m2 | 1H+KT",1200.0,"Helsinki, Kalasatama, Capellan puistotie 4",http://www.vuokraovi.com//vuokra-asunto/helsinki/kalasatama/kerrostalo/yksio/185943,60.1842406,24.982403,Lumo / VVO-kotikeskus PKS,None,None
185944,"kerrostalo, 38, 5 m2 | 1H+KK",1200.0,"Helsinki, Kalasatama, Capellan puistotie 4",http://www.vuokraovi.com//vuokra-asunto/helsinki/kalasatama/kerrostalo/yksio/185944,60.1842406,24.982403,Lumo / VVO-kotikeskus PKS,None,None
185945,"kerrostalo, 74 m2 | 3H+KT",1640.0,"Helsinki, Kalasatama, Capellan puistotie 4",http://www.vuokraovi.com//vuokra-asunto/helsinki/kalasatama/kerrostalo/kolmio/185945,60.1842406,24.982403,Lumo / VVO-kotikeskus PKS,None,None
185946,"kerrostalo, 81 m2 | 3H+KK+S+RT",1830.0,"Helsinki, Kalasatama, Capellan puistotie 4",http://www.vuokraovi.com//vuokra-asunto/helsinki/kalasatama/kerrostalo/kolmio/185946,60.1842406,24.982403,Lumo / VVO-kotikeskus PKS,None,None
185947,"kerrostalo, 54 m2 | 1H+KT",1297.0,"Helsinki, Kalasatama, Capellan puistotie 4",http://www.vuokraovi.com//vuokra-asunto/helsinki/kalasatama/kerrostalo/yksio/185947,60.1842406,24.982403,Lumo / VVO-kotikeskus PKS,None,None
185948,"kerrostalo, 77 m2 | 3H+KK+S+RT",1739.0,"Helsinki, Kalasatama, Capellan puistotie 4",http://www.vuokraovi.com//vuokra-asunto/helsinki/kalasatama/kerrostalo/kolmio/185948,60.1842406,24.982403,Lumo / VVO-kotikeskus PKS,None,None
185950,"kerrostalo, 48 m2 | 2H+KT",1247.0,"Helsinki, Kalasatama, Capellan puistotie 4",http://www.vuokraovi.com//vuokra-asunto/helsinki/kalasatama/kerrostalo/kaksio/185950,60.1842406,24.982403,Lumo / VVO-kotikeskus PKS,None,None
185951,"kerrostalo, 54 m2 | 2H+KT",1325.0,"Helsinki, Kalasatama, Capellan puistotie 4",http://www.vuokraovi.com//vuokra-asunto/helsinki/kalasatama/kerrostalo/kaksio/185951,60.1842406,24.982403,Lumo / VVO-kotikeskus PKS,None,None
185952,"kerrostalo, 77 m2 | 3H+KK+S",1755.0,"Helsinki, Kalasatama, Capellan puistotie 4",http://www.vuokraovi.com//vuokra-asunto/helsinki/kalasatama/kerrostalo/kolmio/185952,60.1842406,24.982403,Lumo / VVO-kotikeskus PKS,None,None
185954,"kerrostalo, 48 m2 | 2H+KT",1260.0,"Helsinki, Kalasatama, Capellan puistotie 4",http://www.vuokraovi.com//vuokra-asunto/helsinki/kalasatama/kerrostalo/kaksio/185954,60.1842406,24.982403,Lumo / VVO-kotikeskus PKS,None,None
185955,"kerrostalo, 54 m2 | 2H+KT",1338.0,"Helsinki, Kalasatama, Capellan puistotie 4",http://www.vuokraovi.com//vuokra-asunto/helsinki/kalasatama/kerrostalo/kaksio/185955,60.1842406,24.982403,Lumo / VVO-kotikeskus PKS,None,None
185956,"kerrostalo, 77 m2 | 3H+KK+S+RT",1772.0,"Helsinki, Kalasatama, Capellan puistotie 4",http://www.vuokraovi.com//vuokra-asunto/helsinki/kalasatama/kerrostalo/kolmio/185956,60.1842406,24.982403,Lumo / VVO-kotikeskus PKS,None,None
185958,"kerrostalo, 54 m2 | 2H+KT",1351.0,"Helsinki, Kalasatama, Capellan puistotie 4",http://www.vuokraovi.com//vuokra-asunto/helsinki/kalasatama/kerrostalo/kaksio/185958,60.1842406,24.982403,Lumo / VVO-kotikeskus PKS,None,None
185959,"kerrostalo, 77 m2 | 3H+KK+S+RT",1788.0,"Helsinki, Kalasatama, Capellan puistotie 4",http://www.vuokraovi.com//vuokra-asunto/helsinki/kalasatama/kerrostalo/kolmio/185959,60.1842406,24.982403,Lumo / VVO-kotikeskus PKS,None,None
185961,"kerrostalo, 48 m2 | 2H+KT",1284.0,"Helsinki, Kalasatama, Capellan puistotie 4",http://www.vuokraovi.com//vuokra-asunto/helsinki/kalasatama/kerrostalo/kaksio/185961,60.1842406,24.982403,Lumo / VVO-kotikeskus PKS,None,None
185962,"kerrostalo, 54 m2 | 2H+KT",1364.0,"Helsinki, Kalasatama, Capellan puistotie 4",http://www.vuokraovi.com//vuokra-asunto/helsinki/kalasatama/kerrostalo/kaksio/185962,60.1842406,24.982403,Lumo / VVO-kotikeskus PKS,None,None
185963,"kerrostalo, 77 m2 | 3H+KK+S+RT",1804.0,"Helsinki, Kalasatama, Capellan puistotie 4",http://www.vuokraovi.com//vuokra-asunto/helsinki/kalasatama/kerrostalo/kolmio/185963,60.1842406,24.982403,Lumo / VVO-kotikeskus PKS,None,None
185964,"kerrostalo, 65, 5 m2 | 3H+KT+S",1653.0,"Helsinki, Kalasatama, Capellan puistotie 4",http://www.vuokraovi.com//vuokra-asunto/helsinki/kalasatama/kerrostalo/kolmio/185964,60.1842406,24.982403,Lumo / VVO-kotikeskus PKS,None,None
185908,"kerrostalo, 57, 5 m2 | 2h+k+s+parv",868.29,"Espoo, Ymmersta, Ullantorpantie 8 A",http://www.vuokraovi.com//vuokra-asunto/espoo/ymmersta/kerrostalo/kaksio/185908,60.20465910000001,24.7055545,Asuntosaatio,None,None
185906,"kerrostalo, 129 m2 | Unfurnished 3r, SAUNA",2800.0,"Helsinki, Kamppi, Kalevankatu 40 A",http://www.vuokraovi.com//vuokra-asunto/helsinki/kamppi/kerrostalo/kolmio/185906,60.164753,24.9309354,Celine Oy Ab LKV AFM,None,None
185839,"omakotitalo, 130 m2 | VILLA; 5r, s, fireplace, terrace, YARD",1950.0,"Espoo, Noykkio, Metsatie 17",http://www.vuokraovi.com//vuokra-asunto/espoo/noykkio/omakotitalo/5h+/185839,60.1579054,24.6721172,Celine Oy Ab LKV AFM,None,None
185878,"kerrostalo, 60 m2 | 2 h, s, avokeittio, parveke",1350.0,"Helsinki, Lauttasaari, Italahdenkatu 2",http://www.vuokraovi.com//vuokra-asunto/helsinki/lauttasaari/kerrostalo/kaksio/185878,60.14756130000001,24.8823119,Agency info missing,None,None
185871,"kerrostalo, 86 m2 | 4H+KT+S",1520.47,"Helsinki, Viikki, Viikinportti 2",http://www.vuokraovi.com//vuokra-asunto/helsinki/viikki/kerrostalo/4h/185871,60.2265964,25.008537,Ovenia Isannointi Oy,None,None
185859,"kerrostalo, 48 m2 | 2 h, kt",1060.0,"Helsinki, Sornainen, Paaskylanrinne 8 A",http://www.vuokraovi.com//vuokra-asunto/helsinki/sornainen/kerrostalo/kaksio/185859,60.1881862,24.9666316,Suomen Laatuasunnot Oy,None,None
185833,"kerrostalo, 62 m2 | 2h + avok + kph",1350.0,"Helsinki, Etu-Toolo, Freesenkatu 3A",http://www.vuokraovi.com//vuokra-asunto/helsinki/etu-toolo/kerrostalo/kaksio/185833,60.1721193,24.928636,Vuokraturva Oy LKV [A],None,None
185829,"kerrostalo, 58, 5 m2 | 2H+K",905.0,"Espoo, Kivenlahti, Jalkimaininki 4",http://www.vuokraovi.com//vuokra-asunto/espoo/kivenlahti/kerrostalo/kaksio/185829,60.1540942,24.6440628,Lumo / VVO-kotikeskus PKS,None,None
185814,"kerrostalo, 33, 5 m2 | 1h + kk + kph",575.0,"Espoo, Suvela, Sokinvuorenrinne 4 A",http://www.vuokraovi.com//vuokra-asunto/espoo/suvela/kerrostalo/yksio/185814,60.2004173,24.6680631,Vuokraturva Oy LKV [A],None,None
185815,"kerrostalo, 31 m2 | 1h + kk + kph + p",595.0,"Espoo, Viherlaakso, Kievarinraitti 2 B",http://www.vuokraovi.com//vuokra-asunto/espoo/viherlaakso/kerrostalo/yksio/185815,60.2290062,24.7420301,Vuokraturva Oy LKV [A],None,None
185809,"paritalo, 94 m2 | 4h, k s, p",1600.0,"Espoo, Hannusjarvi, Katajatie 15",http://www.vuokraovi.com//vuokra-asunto/espoo/hannusjarvi/paritalo/4h/185809,60.1484215,24.6696311,24 Housing Oy Espoo,None,None
185799,"kerrostalo, 49 m2 | 2H+K",852.0,"Helsinki, Pajamaki, Poutamaentie 7",http://www.vuokraovi.com//vuokra-asunto/helsinki/pajamaki/kerrostalo/kaksio/185799,60.21762210000001,24.8558245,Lumo / VVO-kotikeskus PKS,None,None
185772,"kerrostalo, 81 m2 | 3H+K+S",2085.67,"Helsinki, Lauttasaari, Vattuniemenkuja 8",http://www.vuokraovi.com//vuokra-asunto/helsinki/lauttasaari/kerrostalo/kolmio/185772,60.1533252,24.8822535,Ovenia Isannointi Oy,None,None
185773,"kerrostalo, 47 m2 | 2H+KT",1098.03,"Helsinki, Lauttasaari, Vattuniemenkuja 8",http://www.vuokraovi.com//vuokra-asunto/helsinki/lauttasaari/kerrostalo/kaksio/185773,60.1533252,24.8822535,Ovenia Isannointi Oy,None,None
184796,"kerrostalo, 31, 7 m2 | 1h+kk+vh+kh",790.0,"Helsinki, Munkkivuori, Porintie 9",http://www.vuokraovi.com//vuokra-asunto/helsinki/munkkivuori/kerrostalo/yksio/184796,60.2045566,24.8676564,Agency info missing,None,None
185713,"kerrostalo, 51, 5 m2 | 2h+k",788.0,"Espoo, Tapiola, Elosalamantie 4",http://www.vuokraovi.com//vuokra-asunto/espoo/tapiola/kerrostalo/kaksio/185713,60.17110719999999,24.808116,SATO Vuokraus ja myynti / Helsinki,None,None
185715,"kerrostalo, 52 m2 | 2h+k",965.0,"Helsinki, Herttoniemi, Hiihtomaentie 44",http://www.vuokraovi.com//vuokra-asunto/helsinki/herttoniemi/kerrostalo/kaksio/185715,60.2062311,25.0342865,SATO Vuokraus ja myynti / Helsinki,None,None
185711,"kerrostalo, 48 m2 | 2h+kk+sauna+parveke",999.0,"Helsinki, Etela-Haaga, Vanha Viertotie 9",http://www.vuokraovi.com//vuokra-asunto/helsinki/etela-haaga/kerrostalo/kaksio/185711,60.2105514,24.8860446,Ovenia (co. Keskinainen Elakevakuutusyhtio Ilmarinen),None,None
185700,"kerrostalo, 78 m2 | 3h, k, kph, s, p",1920.0,"Espoo, Eestinlaakso, Eestintaival 3",http://www.vuokraovi.com//vuokra-asunto/espoo/eestinlaakso/kerrostalo/kolmio/185700,60.16971539999999,24.6751341,Majoituspalvelu Forenom Oy,None,None
185692,"kerrostalo, 52 m2 | 2h + k + kph + vh + lasitettu",820.0,"Helsinki, Kallio, Vaasankatu 16 B",http://www.vuokraovi.com//vuokra-asunto/helsinki/kallio/kerrostalo/kaksio/185692,60.1882654,24.9549816,Vuokraturva Oy LKV [A],None,None
185691,"kerrostalo, 45, 5 m2 | 2h, k, kph, lasitettu parveke",1000.0,"Helsinki, Kallio, Vilhonvuorenkuja 4",http://www.vuokraovi.com//vuokra-asunto/helsinki/kallio/kerrostalo/kaksio/185691,60.1863043,24.962607,"Kiinteistomaailma | Helsingin Ykkoskiinteistot Oy, Malmi",None,None
185678,"kerrostalo, 31 m2 | 1H+AVOK",760.0,"Helsinki, Rastila, Retkeilijankatu 3 A",http://www.vuokraovi.com//vuokra-asunto/helsinki/rastila/kerrostalo/yksio/185678,60.20592319999999,25.1204993,Newsec Asset Management  Oy,None,None
185679,"kerrostalo, 31 m2 | 1H+AVOK",770.0,"Helsinki, Rastila, Retkeilijankatu 5 A",http://www.vuokraovi.com//vuokra-asunto/helsinki/rastila/kerrostalo/yksio/185679,60.2058997,25.1208972,Newsec Asset Management  Oy,None,None
185680,"kerrostalo, 31 m2 | 1H+AVOK",780.0,"Helsinki, Rastila, Retkeilijankatu 5 A",http://www.vuokraovi.com//vuokra-asunto/helsinki/rastila/kerrostalo/yksio/185680,60.2058997,25.1208972,Newsec Asset Management  Oy,None,None
185681,"kerrostalo, 31 m2 | 1H+AVOK",750.0,"Helsinki, Rastila, Retkeilijankatu 7 A",http://www.vuokraovi.com//vuokra-asunto/helsinki/rastila/kerrostalo/yksio/185681,60.205602,25.12218,Newsec Asset Management  Oy,None,None
185682,"kerrostalo, 31 m2 | 1H+AVOK",750.0,"Helsinki, Rastila, Retkeilijankatu 7 A",http://www.vuokraovi.com//vuokra-asunto/helsinki/rastila/kerrostalo/yksio/185682,60.205602,25.12218,Newsec Asset Management  Oy,None,None
185671,"kerrostalo, 59 m2 | 2 h + kt + s + terassi",980.0,"Espoo, Matinkyla, Etuniementie 1 C",http://www.vuokraovi.com//vuokra-asunto/espoo/matinkyla/kerrostalo/kaksio/185671,60.1604542,24.7244342,Asuntoverstas Hallinnointi ja vuokraus Oy,None,None
185672,"kerrostalo, 34 m2 | 1 h + kt + lasitettu parveke",760.0,"Espoo, Matinkyla, Etuniementie 1 C",http://www.vuokraovi.com//vuokra-asunto/espoo/matinkyla/kerrostalo/yksio/185672,60.1604542,24.7244342,Asuntoverstas Hallinnointi ja vuokraus Oy,None,None
185673,"kerrostalo, 65 m2 | 2 h + kt + lasitettu parveke",1140.0,"Espoo, Matinkyla, Etuniementie 1 C",http://www.vuokraovi.com//vuokra-asunto/espoo/matinkyla/kerrostalo/kaksio/185673,60.1604542,24.7244342,Asuntoverstas Hallinnointi ja vuokraus Oy,None,None
185674,"kerrostalo, 78, 5 m2 | 3 h + kt + s + lasitettu parve",1320.0,"Espoo, Matinkyla, Etuniementie 1 D",http://www.vuokraovi.com//vuokra-asunto/espoo/matinkyla/kerrostalo/kolmio/185674,60.1604542,24.7244342,Asuntoverstas Hallinnointi ja vuokraus Oy,None,None
185675,"kerrostalo, 71 m2 | 3 h + kt + s + terassi",1230.0,"Espoo, Matinkyla, Etuniementie 1 E",http://www.vuokraovi.com//vuokra-asunto/espoo/matinkyla/kerrostalo/kolmio/185675,60.1604542,24.7244342,Asuntoverstas Hallinnointi ja vuokraus Oy,None,None
185676,"kerrostalo, 108 m2 | 4 h + kt + vh + s + lasitettu",1550.0,"Espoo, Matinkyla, Etuniementie 1 E",http://www.vuokraovi.com//vuokra-asunto/espoo/matinkyla/kerrostalo/4h/185676,60.1604542,24.7244342,Asuntoverstas Hallinnointi ja vuokraus Oy,None,None
185669,"kerrostalo, 79 m2 | 3h+k+sauna+parveke",1416.0,"Helsinki, Etela-Haaga, Vanha Viertotie 9",http://www.vuokraovi.com//vuokra-asunto/helsinki/etela-haaga/kerrostalo/kolmio/185669,60.2105514,24.8860446,Ovenia (co. Keskinainen Elakevakuutusyhtio Ilmarinen),None,None
185651,"kerrostalo, 64 m2 | 2h+k",1430.0,"Helsinki, Kaivopuisto, Laivasillankatu 14 B",http://www.vuokraovi.com//vuokra-asunto/helsinki/kaivopuisto/kerrostalo/kaksio/185651,60.1606854,24.9556458,Ovenia,None,None
185645,"kerrostalo, 72 m2 | 3H+K",1017.0,"Espoo, Kivenlahti, Jalkimaininki 4",http://www.vuokraovi.com//vuokra-asunto/espoo/kivenlahti/kerrostalo/kolmio/185645,60.1540942,24.6440628,Lumo / VVO-kotikeskus PKS,None,None
185646,"kerrostalo, 73 m2 | 3H+K+S",1025.0,"Espoo, Matinkyla, Kala-Maija 3",http://www.vuokraovi.com//vuokra-asunto/espoo/matinkyla/kerrostalo/kolmio/185646,60.1591653,24.7407618,Lumo / VVO-kotikeskus PKS,None,None
185584,"kerrostalo, 73 m2 | 3h, k, kph, p",1250.0,"Helsinki, Mellunmaki, Kaunispaantie 3 I",http://www.vuokraovi.com//vuokra-asunto/helsinki/mellunmaki/kerrostalo/kolmio/185584,60.2330969,25.1281227,Habita Itakeskus / Helsingin Habita Oy,None,None
185572,"kerrostalo, 19 m2 | Kalustettu + 1hh",630.0,"Helsinki, Punavuori, Sinebrychoffinkatu 11 C",http://www.vuokraovi.com//vuokra-asunto/helsinki/punavuori/kerrostalo/yksio/185572,60.1622507,24.9343124,OVV Asuntopalvelut Oy,None,None
185543,"kerrostalo, 55, 5 m2 | 2h+k+parveke",939.0,"Helsinki, Kannelmaki, Hanuripolku 6",http://www.vuokraovi.com//vuokra-asunto/helsinki/kannelmaki/kerrostalo/kaksio/185543,60.2389869,24.88358,Ovenia (co. Keskinainen Elakevakuutusyhtio Ilmarinen),None,None
185499,"kerrostalo, 40, 5 m2 | 1h+alk+kk+s+parv",861.97,"Helsinki, Aurinkolahti, Aurinkotuulenkatu 14",http://www.vuokraovi.com//vuokra-asunto/helsinki/aurinkolahti/kerrostalo/yksio/185499,60.2050945,25.1580512,Asuntosaatio,None,None
185492,"kerrostalo, 73, 5 m2 | 3h, k, sauna, lasitettu parvek",1196.0,"Espoo, Matinkyla, Nelikkotie 2",http://www.vuokraovi.com//vuokra-asunto/espoo/matinkyla/kerrostalo/kolmio/185492,60.1619585,24.7407391,Paakaupunkiseutu Suuromistajien vuokra-asunnot,None,None
185484,"kerrostalo, 82, 5 m2 | 3 h + kt + s + terassi",1350.0,"Espoo, Matinkyla, Etuniementie 1 C",http://www.vuokraovi.com//vuokra-asunto/espoo/matinkyla/kerrostalo/kolmio/185484,60.1604542,24.7244342,Asuntoverstas Hallinnointi ja vuokraus Oy,None,None
185392,"kerrostalo, 39 m2 | 1h, k, ransk.p",882.0,"Helsinki, Etela-Haaga, Ryytimaantie 1",http://www.vuokraovi.com//vuokra-asunto/helsinki/etela-haaga/kerrostalo/yksio/185392,60.2155751,24.9042814,Maxmani Oy,None,None
185109,"paritalo, 99 m2 | OH+2MH+AVOK+TH+S+KPH+P+Piha",1400.0,"Helsinki, Tapaninvainio, Siimakuja 2 B",http://www.vuokraovi.com//vuokra-asunto/helsinki/tapaninvainio/paritalo/4h/185109,60.25405739999999,24.9837254,Smartmove Oy,None,None
185476,"kerrostalo, 26 m2 | 1 h, kk, kh, alkovi",690.0,"Helsinki, Punavuori, Punavuorenkatu 11",http://www.vuokraovi.com//vuokra-asunto/helsinki/punavuori/kerrostalo/yksio/185476,60.1608508,24.9366871,Paakaupunkiseutu Yksityisomistajien vuokra-asunnot,None,None
185475,"kerrostalo, 106 m2 | 4h+kt+s",2120.0,"Helsinki, Kalasatama, Antareksenkatu 22 a",http://www.vuokraovi.com//vuokra-asunto/helsinki/kalasatama/kerrostalo/4h/185475,60.18507699999999,24.979499,Kiinteistomaailma | Kallion Kodit Oy LKV,None,None
185452,"rivitalo, 110 m2 | 5H+K+S",1583.0,"Espoo, Latokaski, Kaskihalme 1",http://www.vuokraovi.com//vuokra-asunto/espoo/latokaski/rivitalo/5h+/185452,60.17746119999999,24.6677776,AVAIN Asumisoikeus Oy,None,None
185439,"kerrostalo, 25 m2 | 1h",600.0,"Helsinki, Alppila, Porvoonkatu 27",http://www.vuokraovi.com//vuokra-asunto/helsinki/alppila/kerrostalo/yksio/185439,60.1916218,24.9437281,Agency info missing,None,None
185431,"kerrostalo, 40 m2 | 2h + avok",1150.0,"Helsinki, Meilahti, Pihlajatie 24 B 21",http://www.vuokraovi.com//vuokra-asunto/helsinki/meilahti/kerrostalo/kaksio/185431,60.1940076,24.9018526,Agency info missing,None,None
185414,"kerrostalo, 40, 5 m2 | 1h, avok, sauna, lasit.parveke",931.0,"Helsinki, Etela-Haaga, Vanha Viertotie 9",http://www.vuokraovi.com//vuokra-asunto/helsinki/etela-haaga/kerrostalo/yksio/185414,60.2105514,24.8860446,Ovenia (co. Keskinainen Elakevakuutusyhtio Ilmarinen),None,None
185399,"kerrostalo, 71 m2 | 3H+K",924.0,"Helsinki, Malminkartano, Koskustie 4",http://www.vuokraovi.com//vuokra-asunto/helsinki/malminkartano/kerrostalo/kolmio/185399,60.2530829,24.8552249,VVO-kotikeskus PKS,None,None
185393,"kerrostalo, 47, 5 m2 | 2h+kk",789.0,"Espoo, Laajalahti, Heinjoenpolku 2 A-J",http://www.vuokraovi.com//vuokra-asunto/espoo/laajalahti/kerrostalo/kaksio/185393,60.2035545,24.802476,SATO Vuokraus ja myynti / Helsinki,None,None
185394,"kerrostalo, 54, 5 m2 | 2h+k",1058.0,"Helsinki, Puotila, Juorumaenkuja 5",http://www.vuokraovi.com//vuokra-asunto/helsinki/puotila/kerrostalo/kaksio/185394,60.20894569999999,25.1037493,SATO Vuokraus ja myynti / Helsinki,None,None
185395,"kerrostalo, 66 m2 | 3h+k",1173.0,"Helsinki, Kumpula, Gadolininkatu 4",http://www.vuokraovi.com//vuokra-asunto/helsinki/kumpula/kerrostalo/kolmio/185395,60.2062687,24.9650102,Agency info missing,None,None
185396,"kerrostalo, 62 m2 | 2h+k",1052.0,"Helsinki, Ita-Pasila, Junailijankuja 10",http://www.vuokraovi.com//vuokra-asunto/helsinki/ita-pasila/kerrostalo/kaksio/185396,60.2003367,24.9364758,Agency info missing,None,None
185397,"kerrostalo, 57 m2 | 2h+k+s",1058.0,"Helsinki, Herttoniemi, Laivalahdenkaari 8",http://www.vuokraovi.com//vuokra-asunto/helsinki/herttoniemi/kerrostalo/kaksio/185397,60.1908559,25.0355264,SATO Vuokraus ja myynti / Helsinki,None,None
185343,"kerrostalo, 114 m2 | 5h, k",1435.0,"Espoo, Olari, Ylistorma 1",http://www.vuokraovi.com//vuokra-asunto/espoo/olari/kerrostalo/5h+/185343,60.17714669999999,24.7378181,Paakaupunkiseutu Suuromistajien vuokra-asunnot,None,None
185344,"kerrostalo, 51 m2 | 2h, kk, kh, s, p",1080.0,"Helsinki, Arabianranta, Muotoilijankatu 8",http://www.vuokraovi.com//vuokra-asunto/helsinki/arabianranta/kerrostalo/kaksio/185344,60.21040089999999,24.9781254,Paakaupunkiseutu Yksityisomistajien vuokra-asunnot,None,None
185326,"kerrostalo, 70 m2 | 3h, k, s, lasitettu parveke",1229.0,"Helsinki, Malmi, Katontekijankuja 1",http://www.vuokraovi.com//vuokra-asunto/helsinki/malmi/kerrostalo/kolmio/185326,60.2529315,25.0233022,Paakaupunkiseutu Suuromistajien vuokra-asunnot,None,None
185312,"kerrostalo, 39 m2 | 2h, kk, kph, p",900.0,"Helsinki, Lauttasaari, Lauttasaarentie 9 A",http://www.vuokraovi.com//vuokra-asunto/helsinki/lauttasaari/kerrostalo/kaksio/185312,60.161049,24.8880303,Kiinteistotoimisto Takio LKV [A],None,None
185293,"kerrostalo, 77 m2 | 3H+K",1113.0,"Espoo, Suvela, Kirstintie 30",http://www.vuokraovi.com//vuokra-asunto/espoo/suvela/kerrostalo/kolmio/185293,60.2050488,24.6734683,Lumo / VVO-kotikeskus PKS,None,None
185294,"kerrostalo, 65, 5 m2 | 3H+KK",1134.0,"Espoo, Suurpelto, Klariksentie 6",http://www.vuokraovi.com//vuokra-asunto/espoo/suurpelto/kerrostalo/kolmio/185294,60.18299630000001,24.7400748,Lumo / VVO-kotikeskus PKS,None,None
185288,"kerrostalo, 68, 5 m2 | 3h, kt, s, lasitettu parveke",1174.0,"Espoo, Kilo, Nihtitorpankuja 7",http://www.vuokraovi.com//vuokra-asunto/espoo/kilo/kerrostalo/kolmio/185288,60.2054911,24.6559001,Paakaupunkiseutu Suuromistajien vuokra-asunnot,None,None
185290,"kerrostalo, 66 m2 | 3h, k, s, lasitettu parveke",1230.0,"Espoo, Makkyla, Adjutantinkatu 3",http://www.vuokraovi.com//vuokra-asunto/espoo/makkyla/kerrostalo/kolmio/185290,60.22170629999999,24.8348804,Paakaupunkiseutu Suuromistajien vuokra-asunnot,None,None
185291,"kerrostalo, 62, 5 m2 | 2h, k, sauna, parveke",985.0,"Espoo, Leppavaara, Kiskottajankuja 2",http://www.vuokraovi.com//vuokra-asunto/espoo/leppavaara/kerrostalo/kaksio/185291,60.2299168,24.8140589,Paakaupunkiseutu Suuromistajien vuokra-asunnot,None,None
185279,"kerrostalo, 88 m2 | RESERVED 3r, balcony, PARKING",2350.0,"Helsinki, Ullanlinna, RESERVED Neitsytpolku 6 B",http://www.vuokraovi.com//vuokra-asunto/helsinki/ullanlinna/kerrostalo/kolmio/185279,60.17332440000001,24.9410248,Celine Oy Ab LKV AFM,None,None
185281,"kerrostalo, 66 m2 | 3h, k, kph, rt, eteishalli",1150.0,"Helsinki, Meilahti, Pihlajatie 38 A",http://www.vuokraovi.com//vuokra-asunto/helsinki/meilahti/kerrostalo/kolmio/185281,60.1953486,24.8992614,RE/MAX Casa Alto | Casa Alto Oy LKV,None,None
185275,"kerrostalo, 118, 38 m2 | 3h + avok + kph + wc + s + khh",1950.0,"Helsinki, Etu-Toolo, Caloniuksenkatu 8 A",http://www.vuokraovi.com//vuokra-asunto/helsinki/etu-toolo/kerrostalo/kolmio/185275,60.17480310000001,24.9210136,Vuokraturva Oy LKV [A],None,None
185276,"rivitalo, 148, 5 m2 | 4h + k + kph + 2 erillista wc:",1695.0,"Espoo, Haukilahti, Lohitie 17",http://www.vuokraovi.com//vuokra-asunto/espoo/haukilahti/rivitalo/4h/185276,60.1652307,24.7662158,Vuokraturva Oy LKV [A],None,None
185263,"kerrostalo, 68, 5 m2 | 3h, kt, s, lasitettu parveke",1111.0,"Espoo, Kilo, Nihtitorpankuja 7",http://www.vuokraovi.com//vuokra-asunto/espoo/kilo/kerrostalo/kolmio/185263,60.2054911,24.6559001,Paakaupunkiseutu Suuromistajien vuokra-asunnot,None,None
185266,"kerrostalo, 71 m2 | 3h, kt, s, terassi",1111.0,"Espoo, Kilo, Nihtitorpankuja 7",http://www.vuokraovi.com//vuokra-asunto/espoo/kilo/kerrostalo/kolmio/185266,60.2054911,24.6559001,Paakaupunkiseutu Suuromistajien vuokra-asunnot,None,None
185255,"paritalo, 266 m2 | 5h, k, khh, 2 kph, 2 wc, vh, s",3700.0,"Helsinki, Lehtisaari, Pyhan Laurin tie 5 B",http://www.vuokraovi.com//vuokra-asunto/helsinki/lehtisaari/paritalo/5h+/185255,60.180654,24.8570126,Senaatin Notariaatti Oy LKV,None,None
185245,"omakotitalo, 80 m2 | 2h + k + wc + s",950.0,"Espoo, Mankkaa, Eerontie 3",http://www.vuokraovi.com//vuokra-asunto/espoo/mankkaa/omakotitalo/kaksio/185245,60.19188570000001,24.7589285,OVV Asuntopalvelut Oy,None,None
185246,"kerrostalo, 82 m2 | 3H+K",1114.0,"Espoo, Kivenlahti, Kivenlahdenkatu 5",http://www.vuokraovi.com//vuokra-asunto/espoo/kivenlahti/kerrostalo/kolmio/185246,60.1547105,24.6312163,Lumo / VVO-kotikeskus PKS,None,None
185235,"kerrostalo, 49, 5 m2 | 2h, k, parveke",910.0,"Helsinki, Konala, Seltterikuja 5",http://www.vuokraovi.com//vuokra-asunto/helsinki/konala/kerrostalo/kaksio/185235,60.2377939,24.847991,Paakaupunkiseutu Suuromistajien vuokra-asunnot,None,None
185239,"kerrostalo, 66 m2 | 3h, k, kph, p",1100.0,"Espoo, Haukilahti, Kuhatienahde 3",http://www.vuokraovi.com//vuokra-asunto/espoo/haukilahti/kerrostalo/kolmio/185239,60.1656518,24.7715134,Paakaupunkiseutu Yksityisomistajien vuokra-asunnot,None,None
185232,"kerrostalo, 46, 2 m2 | 1-2h, avok, kph",900.0,"Helsinki, Kallio, Helsinginkatu 13 C",http://www.vuokraovi.com//vuokra-asunto/helsinki/kallio/kerrostalo/kaksio/185232,60.187302,24.9556994,Kiinteistotoimisto Takio LKV [A],None,None
185224,"kerrostalo, 53 m2 | 2h+k+p",1100.0,"Helsinki, Toolo, Toolonkatu 31",http://www.vuokraovi.com//vuokra-asunto/helsinki/toolo/kerrostalo/kaksio/185224,60.18107000000001,24.924049,Espoon Helvi Oy LKV,None,None
185208,"kerrostalo, 57, 5 m2 | RESERVED 2 rooms, Jacuzzi, balcony",1350.0,"Helsinki, Katajanokka, RESERVED Katajanokanranta 11 C",http://www.vuokraovi.com//vuokra-asunto/helsinki/katajanokka/kerrostalo/kaksio/185208,60.17332440000001,24.9410248,Celine Oy Ab LKV AFM,None,None
185204,"kerrostalo, 120 m2 | 4-5 huonetta avok kph wc 2x p",1900.0,"Helsinki, Lauttasaari, Otavantie 7 A",http://www.vuokraovi.com//vuokra-asunto/helsinki/lauttasaari/kerrostalo/5h+/185204,60.15917570000001,24.8799904,Kiinteistotoimisto Takio LKV [A],None,None
185205,"kerrostalo, 71, 5 m2 | 3 huonetta keittio kylpyhuone",1200.0,"Helsinki, Lauttasaari, Lokkikuja 1 A",http://www.vuokraovi.com//vuokra-asunto/helsinki/lauttasaari/kerrostalo/kolmio/185205,60.16064739999999,24.8597333,Kiinteistotoimisto Takio LKV [A],None,None
185164,"kerrostalo, 97, 5 m2 | FURNISHED 4r+kit+1.5ba+balc",2195.0,"Helsinki, Katajanokka, Katajanokanranta 7",http://www.vuokraovi.com//vuokra-asunto/helsinki/katajanokka/kerrostalo/4h/185164,60.1662672,24.9748696,Agency info missing,None,None
185144,"kerrostalo, 41 m2 | 2h+kk+kph",820.0,"Helsinki, Alppila, Viipurinkatu 9 A",http://www.vuokraovi.com//vuokra-asunto/helsinki/alppila/kerrostalo/kaksio/185144,60.19119490000001,24.9430845,RE/MAX Kiinteistonvalitys Hyvat Kodit Oy LKV,None,None
185140,"kerrostalo, 58 m2 | 2h, k, lasitettu parveke",989.0,"Espoo, Tapiola, Tietajantie 11",http://www.vuokraovi.com//vuokra-asunto/espoo/tapiola/kerrostalo/kaksio/185140,60.18736229999999,24.8035085,Agency info missing,None,None
185129,"erillistalo, 45 m2 | 1h+kn+vh+ph+ vpk+ sauna",680.0,"Helsinki, Lansi-Pakila, Valitalontie 38B",http://www.vuokraovi.com//vuokra-asunto/helsinki/lansi-pakila/erillistalo/yksio/185129,60.2466415,24.9347788,Agency info missing,None,None
185125,"kerrostalo, 46, 5 m2 | 2h, kk, s, parveke",822.0,"Espoo, Lintuvaarantie 21",http://www.vuokraovi.com//vuokra-asunto/espoo/kerrostalo/kaksio/185125,60.2262258,24.8122117,Agency info missing,None,None
184807,"kerrostalo, 36 m2 | 1 h+avokk+kph+parveke",765.0,"Helsinki, Lauttasaari, Melkonkatu 8",http://www.vuokraovi.com//vuokra-asunto/helsinki/lauttasaari/kerrostalo/yksio/184807,60.1490349,24.883381,Agency info missing,None,None
185118,"kerrostalo, 102 m2 | 3h, k, kph, erillinen wc, vh",1800.0,"Helsinki, Katajanokka, Luotsikatu 6 E",http://www.vuokraovi.com//vuokra-asunto/helsinki/katajanokka/kerrostalo/kolmio/185118,60.16782569999999,24.9643819,Agency info missing,None,None
185094,"kerrostalo, 52, 5 m2 | 2 h, avok, kh, sauna, parveke",1177.0,"Helsinki, Kamppi, Eerikinkatu 41",http://www.vuokraovi.com//vuokra-asunto/helsinki/kamppi/kerrostalo/kaksio/185094,60.1638959,24.9255666,Paakaupunkiseutu Yksityisomistajien vuokra-asunnot,None,None
185096,"kerrostalo, 81, 5 m2 | 4h, kt, s, lasitettu parveke",1409.0,"Helsinki, Vuosaari, Jauhajankuja 2",http://www.vuokraovi.com//vuokra-asunto/helsinki/vuosaari/kerrostalo/4h/185096,60.17332440000001,24.9410248,Paakaupunkiseutu Suuromistajien vuokra-asunnot,None,None
185098,"kerrostalo, 73 m2 | 3 h, kk, lasitettu parveke",1308.0,"Helsinki, Itakeskus, Vanhanlinnantie 3",http://www.vuokraovi.com//vuokra-asunto/helsinki/itakeskus/kerrostalo/kolmio/185098,60.2144655,25.0878091,Paakaupunkiseutu Suuromistajien vuokra-asunnot,None,None
185085,"omakotitalo, 491 m2 | 10h, k, s, saleja, kirjasto",4900.0,"Espoo, Espoonlahdenranta 21",http://www.vuokraovi.com//vuokra-asunto/espoo/omakotitalo/5h+/185085,60.1455158,24.6402548,"Uudenmaan Viva Oy Lkv, Suur-Helsinki",None,None
185059,"kerrostalo, 69, 5 m2 | 3h, kt, sauna, parveke",1219.0,"Helsinki, Malmi, Helatehtaankatu 3",http://www.vuokraovi.com//vuokra-asunto/helsinki/malmi/kerrostalo/kolmio/185059,60.25461819999999,25.0196263,Paakaupunkiseutu Suuromistajien vuokra-asunnot,None,None
185063,"kerrostalo, 50 m2 | 2h, kk, kh, parveke",930.0,"Helsinki, Lauttasaari, Italahdenkatu 14",http://www.vuokraovi.com//vuokra-asunto/helsinki/lauttasaari/kerrostalo/kaksio/185063,60.15074929999999,24.8809317,Paakaupunkiseutu Suuromistajien vuokra-asunnot,None,None
185068,"kerrostalo, 68, 5 m2 | 3h, k, s, terassi",1046.0,"Espoo, Kiltakallio, Valakuja 8",http://www.vuokraovi.com//vuokra-asunto/espoo/kiltakallio/kerrostalo/kolmio/185068,60.2032944,24.6600139,Paakaupunkiseutu Suuromistajien vuokra-asunnot,None,None
185042,"kerrostalo, 67 m2 | 3H+K",1046.0,"Helsinki, Pihlajamaki, Maasalvantie 5-9",http://www.vuokraovi.com//vuokra-asunto/helsinki/pihlajamaki/kerrostalo/kolmio/185042,60.23591649999999,25.0105861,Lumo / VVO-kotikeskus PKS,None,None
185037,"kerrostalo, 77, 5 m2 | 3h, k, lasitettu parveke",1226.0,"Helsinki, Itakeskus, Vanhanlinnantie 3",http://www.vuokraovi.com//vuokra-asunto/helsinki/itakeskus/kerrostalo/kolmio/185037,60.2144655,25.0878091,Paakaupunkiseutu Suuromistajien vuokra-asunnot,None,None
185007,"kerrostalo, 53, 5 m2 | 2H+K",951.0,"Helsinki, Malmi, Yla-Malmin tori 3",http://www.vuokraovi.com//vuokra-asunto/helsinki/malmi/kerrostalo/kaksio/185007,60.2524553,25.0092597,Lumo / VVO-kotikeskus PKS,None,None
185009,"kerrostalo, 71, 5 m2 | 3H+K",996.0,"Espoo, Espoon keskus, Sinettikuja 3",http://www.vuokraovi.com//vuokra-asunto/espoo/espoon+keskus/kerrostalo/kolmio/185009,60.2018361,24.6577675,Lumo / VVO-kotikeskus PKS,None,None
184999,"kerrostalo, 61, 5 m2 | 2h, k, s, parveke",1036.0,"Helsinki, Jollas, Puuskarinne 7",http://www.vuokraovi.com//vuokra-asunto/helsinki/jollas/kerrostalo/kaksio/184999,60.1721721,25.0823538,Paakaupunkiseutu Suuromistajien vuokra-asunnot,None,None
185001,"kerrostalo, 67 m2 | 2h, k, lasitettu parveke",1174.0,"Helsinki, Itakeskus, Vanhanlinnantie 3",http://www.vuokraovi.com//vuokra-asunto/helsinki/itakeskus/kerrostalo/kaksio/185001,60.2144655,25.0878091,Paakaupunkiseutu Suuromistajien vuokra-asunnot,None,None
184985,"kerrostalo, 58, 5 m2 | 2h + k + kph + vh + lasitettu",750.0,"Espoo, Suvela, Joupinmaenrinne 4 A",http://www.vuokraovi.com//vuokra-asunto/espoo/suvela/kerrostalo/kaksio/184985,60.2028256,24.6745979,Vuokraturva Oy LKV [A],None,None
184973,"kerrostalo, 49 m2 | 2h, k, lasitettu parveke",962.0,"Helsinki, Viikki, Von Daehnin katu 8",http://www.vuokraovi.com//vuokra-asunto/helsinki/viikki/kerrostalo/kaksio/184973,60.23148610000001,25.0462074,Paakaupunkiseutu Suuromistajien vuokra-asunnot,None,None
184975,"kerrostalo, 56, 5 m2 | 2h, kk, s, lasitettu parveke",1021.0,"Helsinki, Myllypuro, Kivensilmankuja 3",http://www.vuokraovi.com//vuokra-asunto/helsinki/myllypuro/kerrostalo/kaksio/184975,60.22366040000001,25.0739474,Paakaupunkiseutu Suuromistajien vuokra-asunnot,None,None
184933,"kerrostalo, 56 m2 | 2h, k, parveke",1014.0,"Helsinki, Viikki, Von Daehnin katu 8",http://www.vuokraovi.com//vuokra-asunto/helsinki/viikki/kerrostalo/kaksio/184933,60.23148610000001,25.0462074,Paakaupunkiseutu Suuromistajien vuokra-asunnot,None,None
184913,"kerrostalo, 26 m2 | 1h + kk + kph",597.0,"Espoo, Lahderanta, Lahderanta 11 B",http://www.vuokraovi.com//vuokra-asunto/espoo/lahderanta/kerrostalo/yksio/184913,60.2432518,24.7356318,Vuokraturva Oy LKV [A],None,None
184914,"omakotitalo, 164 m2 | 6h + k + 2 x kph + 2 erillista",1690.0,"Espoo, Hognas, Paciuksentie 38",http://www.vuokraovi.com//vuokra-asunto/espoo/hognas/omakotitalo/5h+/184914,60.24918710000001,24.6829844,Vuokraturva Oy LKV [A],None,None
184883,"kerrostalo, 26 m2 | FURNISHED STUDIO",950.0,"Helsinki, Hietalahti, Koydenpunojankatu 8 E",http://www.vuokraovi.com//vuokra-asunto/helsinki/hietalahti/kerrostalo/yksio/184883,60.16380239999999,24.9239742,Celine Oy Ab LKV AFM,None,None
184886,"kerrostalo, 55, 5 m2 | 2h + k + kph + p",945.0,"Helsinki, Etela-Haaga, Korppaantie 3 D",http://www.vuokraovi.com//vuokra-asunto/helsinki/etela-haaga/kerrostalo/kaksio/184886,60.20812050000001,24.8888074,Vuokraturva Oy LKV [A],None,None
183813,"kerrostalo, 47 m2 | 2h+k",1100.0,"Helsinki, Toolo, Toolonkatu 30b",http://www.vuokraovi.com//vuokra-asunto/helsinki/toolo/kerrostalo/kaksio/183813,60.1787337,24.9259991,Parnassia Oy,None,None
184809,"kerrostalo, 33, 5 m2 | 1h+kk",680.0,"Helsinki, Suurmetsa, Kalteentie 3",http://www.vuokraovi.com//vuokra-asunto/helsinki/suurmetsa/kerrostalo/yksio/184809,60.2647844,25.0844432,Agency info missing,None,None
